{"type":"FeatureCollection","crs":{"type":"name","properties":{"name":"urn:ogc:def:crs:OGC:1.3:CRS84"}},"features":[{"type":"Feature","properties":{"FAX":null,"Nome":"NON ATTRIBUITO","Indirizzo":"VIA USSI STEFANO   4","Zona":9,"info":"CENTRO SPORTIVO","URL":null,"TELEFONO1":null},"geometry":{"type":"Point","coordinates":[9.208355790398564,45.507101546640804]}},{"type":"Feature","properties":{"FAX":null,"Nome":"S.S. BAGGIO 2","Indirizzo":"VIA OLIVIERI ALESSIO   11","Zona":7,"info":"CALCIO A 11","URL":null,"TELEFONO1":"024599310"},"geometry":{"type":"Point","coordinates":[9.111564094638217,45.46557149317364]}},{"type":"Feature","properties":{"FAX":"0239210739","Nome":"LIDO DI MILANO","Indirizzo":"PLE LOTTO LORENZO   15","Zona":8,"info":"MINI GOLF","URL":"www.milanosport.it","TELEFONO1":"0239266100"},"geometry":{"type":"Point","coordinates":[9.141940215210044,45.48056392523037]}},{"type":"Feature","properties":{"FAX":null,"Nome":"COOP. AGRISPORT SEZIONE CALCIO","Indirizzo":"VIA DEL RICORDO   58","Zona":2,"info":"CENTRO SPORTIVO","URL":null,"TELEFONO1":"0227207742"},"geometry":{"type":"Point","coordinates":[9.237940277248562,45.509319938720566]}},{"type":"Feature","properties":{"FAX":null,"Nome":"SOCIETA GINNASTICA MILANO 2000","Indirizzo":"VIA MARTIGNONI ADELE   1  A","Zona":2,"info":"CENTRO SPORTIVO","URL":null,"TELEFONO1":"02603288"},"geometry":{"type":"Point","coordinates":[9.196138353610289,45.49256623884979]}},{"type":"Feature","properties":{"FAX":null,"Nome":"PRO PATRIA MILANO S.R.L.","Indirizzo":"VLE SARCA   205","Zona":9,"info":"ATLETICA","URL":null,"TELEFONO1":"026437519"},"geometry":{"type":"Point","coordinates":[9.210254117320218,45.518797359385076]}},{"type":"Feature","properties":{"FAX":null,"Nome":"A.S.D. ATLETICO MILANO","Indirizzo":"VIA DEI CICLAMINI   18","Zona":6,"info":"CENTRO SPORTIVO","URL":null,"TELEFONO1":"024120207"},"geometry":{"type":"Point","coordinates":[9.127652140184303,45.45560368895444]}},{"type":"Feature","properties":{"FAX":null,"Nome":"NON ATTRIBUITO","Indirizzo":"VIA DEGLI ANEMONI   8","Zona":6,"info":"CENTRO SPORTIVO","URL":null,"TELEFONO1":"0288456074"},"geometry":{"type":"Point","coordinates":[9.130505416787958,45.45571877368994]}},{"type":"Feature","properties":{"FAX":"025468795","Nome":"A.S. CALVAIRATE","Indirizzo":"VIA VISMARA GASPARE   3","Zona":4,"info":"CALCIO A 11","URL":"www.ascalvairate.com","TELEFONO1":"025462083"},"geometry":{"type":"Point","coordinates":[9.228964243918373,45.45417247920151]}},{"type":"Feature","properties":{"FAX":null,"Nome":"TENNIS CLUB AMBROSIANO","Indirizzo":"VIA FELTRE   33","Zona":3,"info":"CENTRO SPORTIVO","URL":null,"TELEFONO1":"0226414392"},"geometry":{"type":"Point","coordinates":[9.24262005129704,45.49140032838588]}},{"type":"Feature","properties":{"FAX":null,"Nome":"G.S. LOMBARDINA","Indirizzo":"VIA SBARBARO CAMILLO   1","Zona":9,"info":"CALCIO A 11","URL":null,"TELEFONO1":"026469651"},"geometry":{"type":"Point","coordinates":[9.179248189143143,45.51669530514208]}},{"type":"Feature","properties":{"FAX":null,"Nome":"S.S. SCARIONI 1925","Indirizzo":"VIA TUCIDIDE   10","Zona":3,"info":"CALCIO A 11","URL":null,"TELEFONO1":"0270102158"},"geometry":{"type":"Point","coordinates":[9.243255652374891,45.46943233184755]}},{"type":"Feature","properties":{"FAX":"0248929182","Nome":"MILANO SPORT SPA","Indirizzo":"VIA ARIOLI VENEGONI   9","Zona":7,"info":"PISCINA","URL":"www.milanosport.it","TELEFONO1":"024566316"},"geometry":{"type":"Point","coordinates":[9.110949532627966,45.46810969298943]}},{"type":"Feature","properties":{"FAX":"0248376073","Nome":"MILANO SPORT SPA","Indirizzo":"VIA DEL CARDELLINO   3","Zona":6,"info":"NUOTO","URL":"www.milanosport.it","TELEFONO1":"02417948"},"geometry":{"type":"Point","coordinates":[9.123726368574804,45.44827446135282]}},{"type":"Feature","properties":{"FAX":null,"Nome":"CONI FIS CIRCOLO SPADA  MANGIAROTTI","Indirizzo":"VLE TUNISIA   35","Zona":2,"info":"PALESTRA","URL":null,"TELEFONO1":"026590166"},"geometry":{"type":"Point","coordinates":[9.201282289864418,45.47903984585865]}},{"type":"Feature","properties":{"FAX":"0269540375","Nome":"MILANO SPORT SPA","Indirizzo":"VIA SANT' ABBONDIO   12","Zona":5,"info":"PISCINA","URL":"www.milanosport.it","TELEFONO1":"028466861"},"geometry":{"type":"Point","coordinates":[9.17316370236678,45.425120077237395]}},{"type":"Feature","properties":{"FAX":"0243983187","Nome":"MILANO SPORT SPA","Indirizzo":"VIA MONTEVIDEO   11","Zona":6,"info":"NUOTO","URL":"www.miltanosport.it","TELEFONO1":"024695278"},"geometry":{"type":"Point","coordinates":[9.165230072069471,45.45840493700249]}},{"type":"Feature","properties":{"FAX":null,"Nome":"COOPERATIVA DRIMS","Indirizzo":"VIA MECENATE   74","Zona":4,"info":"CENTRO SPORTIVO","URL":null,"TELEFONO1":"025061277"},"geometry":{"type":"Point","coordinates":[9.246586992138512,45.45369431912185]}},{"type":"Feature","properties":{"FAX":"0289306784","Nome":"LUIGI CARRARO","Indirizzo":"VIA DEI MISSAGLIA   146","Zona":5,"info":"CENTRO SPORTIVO","URL":"www.milanosport.it","TELEFONO1":"028266540"},"geometry":{"type":"Point","coordinates":[9.173318230439977,45.40172352849825]}},{"type":"Feature","properties":{"FAX":null,"Nome":"GIANNI BRERA","Indirizzo":"VLE BYRON GIORGIO   2","Zona":1,"info":"CENTRO SPORTIVO","URL":"www.comune.milano.it","TELEFONO1":"02341924"},"geometry":{"type":"Point","coordinates":[9.178346148501072,45.47533883035294]}},{"type":"Feature","properties":{"FAX":null,"Nome":"EMILIO COLOMBO","Indirizzo":"VIA DEL CARDELLINO   15","Zona":6,"info":"CENTRO SPORTIVO","URL":null,"TELEFONO1":"02410976"},"geometry":{"type":"Point","coordinates":[9.122354458785942,45.45032037866326]}},{"type":"Feature","properties":{"FAX":null,"Nome":"U.S. VISCONTINI","Indirizzo":"VIA GIORGI FERDINANDO   10","Zona":8,"info":"CENTRO SPORTIVO","URL":null,"TELEFONO1":"024526610"},"geometry":{"type":"Point","coordinates":[9.10247069782728,45.49017982868677]}},{"type":"Feature","properties":{"FAX":"0233494959","Nome":"MARCO CAPPELLI - GIUSEPPE SFORZA","Indirizzo":"VIA LAMPUGNANO   80","Zona":8,"info":"CENTRO SPORTIVO","URL":"www.milanosport.it","TELEFONO1":"0238004525"},"geometry":{"type":"Point","coordinates":[9.11368236691072,45.4908600431428]}},{"type":"Feature","properties":{"FAX":"0240918173","Nome":"MILANO SPORT SPA","Indirizzo":"VIA LAMENNAIS F.R.   20","Zona":7,"info":"PISCINA","URL":"www.milanosport.it","TELEFONO1":"024526095"},"geometry":{"type":"Point","coordinates":[9.113112156967162,45.47371259832877]}},{"type":"Feature","properties":{"FAX":"023762283","Nome":"GIORDANO MASSOLA","Indirizzo":"VIA DON MINZONI GIOVANNI   4","Zona":9,"info":"CENTRO SPORTIVO","URL":"www.acgaribaldina1932.net","TELEFONO1":"023762283"},"geometry":{"type":"Point","coordinates":[9.169341456346098,45.50487194762217]}},{"type":"Feature","properties":{"FAX":null,"Nome":"A.S. IDEA SPORT PALLACANESTRO","Indirizzo":"VIA BRIVIO   1","Zona":8,"info":"CENTRO SPORTIVO","URL":null,"TELEFONO1":"0233403435"},"geometry":{"type":"Point","coordinates":[9.14341520543648,45.5028078628738]}},{"type":"Feature","properties":{"FAX":"0239262162","Nome":"XXV APRILE","Indirizzo":"VIA CIMABUE GIOVANNI   24","Zona":8,"info":"ATLETICA","URL":"www.milanosport.it","TELEFONO1":"0239210769"},"geometry":{"type":"Point","coordinates":[9.138502959568921,45.488744309923796]}},{"type":"Feature","properties":{"FAX":"0270200295","Nome":"MARIO SAINI","Indirizzo":"VIA CORELLI ARCANGELO   136","Zona":3,"info":"CENTRO SPORTIVO","URL":"www.milanosport.it","TELEFONO1":"027561280"},"geometry":{"type":"Point","coordinates":[9.263405031896065,45.46996769366024]}},{"type":"Feature","properties":{"FAX":"0256810426","Nome":"MILANO SPORT SPA","Indirizzo":"VIA MINCIO   13","Zona":4,"info":"PISCINA","URL":"www.milanosport.it","TELEFONO1":"02538416"},"geometry":{"type":"Point","coordinates":[9.216115612463506,45.4400612976753]}},{"type":"Feature","properties":{"FAX":"0248713719","Nome":"GIUSEPPE MEAZZA","Indirizzo":"VIA DEI PICCOLOMINI 5","Zona":7,"info":"CENTRO SPORTIVO","URL":"www.sansiro.net","TELEFONO1":"0248713713"},"geometry":{"type":"Point","coordinates":[9.125380823408058,45.47851199725794]}},{"type":"Feature","properties":{"FAX":null,"Nome":"CAMERONI","Indirizzo":"VIA BECHI GIULIO   2","Zona":2,"info":"CENTRO SPORTIVO","URL":"www.crespimorbio.it","TELEFONO1":"022576740"},"geometry":{"type":"Point","coordinates":[9.222333865549814,45.50707712674328]}},{"type":"Feature","properties":{"FAX":null,"Nome":"S.S. SAVORELLI 1937","Indirizzo":"PZA CADUTI DEL LAVORO   5","Zona":5,"info":"CENTRO SPORTIVO","URL":null,"TELEFONO1":"0289511889"},"geometry":{"type":"Point","coordinates":[9.185681043170298,45.4435802335945]}},{"type":"Feature","properties":{"FAX":null,"Nome":"A.C. ALDINIANA","Indirizzo":"VIA GRAF ARTURO   4","Zona":8,"info":"CENTRO SPORTIVO","URL":null,"TELEFONO1":"023574408"},"geometry":{"type":"Point","coordinates":[9.138900361438997,45.51268116606571]}},{"type":"Feature","properties":{"FAX":null,"Nome":"U.S. ALDINI - BARIVIERA","Indirizzo":"VIA ORSINI FELICE   84","Zona":8,"info":"CALCIO A 5","URL":null,"TELEFONO1":"023557909"},"geometry":{"type":"Point","coordinates":[9.126858948012629,45.517415032935105]}},{"type":"Feature","properties":{"FAX":null,"Nome":"F.C. ENOTRIA 1908","Indirizzo":"VIA CAZZANIGA CARLO   26","Zona":3,"info":"CALCIO A 11","URL":null,"TELEFONO1":"022566673"},"geometry":{"type":"Point","coordinates":[9.252262922194825,45.5028623406016]}},{"type":"Feature","properties":{"FAX":null,"Nome":"FEDERAZIONE BRIDGE","Indirizzo":"VIA WASHINGTON GIORGIO   33","Zona":7,"info":"CENTRO SPORTIVO","URL":null,"TELEFONO1":"024691424"},"geometry":{"type":"Point","coordinates":[9.155222052958912,45.46261500924421]}},{"type":"Feature","properties":{"FAX":null,"Nome":"CANOTTIERI MILANO","Indirizzo":"ALZ NAVIGLIO GRANDE   160","Zona":6,"info":"CENTRO SPORTIVO","URL":null,"TELEFONO1":"0248951211"},"geometry":{"type":"Point","coordinates":[9.148845276591365,45.446471682610785]}},{"type":"Feature","properties":{"FAX":null,"Nome":"U.S. DINDELLI","Indirizzo":"VIA TREVIGLIO   6","Zona":2,"info":"CALCIO A 11","URL":null,"TELEFONO1":"022552386"},"geometry":{"type":"Point","coordinates":[9.235247124226337,45.50873627050839]}},{"type":"Feature","properties":{"FAX":null,"Nome":"CARASSAI","Indirizzo":"VIA SANT' ABBONDIO   4","Zona":5,"info":"CALCIO A 11","URL":"www.fcvigejunior.it","TELEFONO1":"0289500644"},"geometry":{"type":"Point","coordinates":[9.171166823377492,45.42447008846473]}},{"type":"Feature","properties":{"FAX":null,"Nome":"S.S. IRIS 1914","Indirizzo":"VIA FARADAY MICHELE   15","Zona":6,"info":"CENTRO SPORTIVO","URL":null,"TELEFONO1":"0289121876"},"geometry":{"type":"Point","coordinates":[9.14491707300683,45.44434707331908]}},{"type":"Feature","properties":{"FAX":null,"Nome":"COM. PROVINCIALE MOVIMENTO SPORT AZZURRO ITALIA","Indirizzo":"VIA PARENZO   2  A","Zona":6,"info":"CENTRO SPORTIVO","URL":"www.centrosportivoparenzo.it","TELEFONO1":"028910351"},"geometry":{"type":"Point","coordinates":[9.138706993320728,45.44255007133195]}},{"type":"Feature","properties":{"FAX":null,"Nome":"COOP. SPORTIVA VALLA","Indirizzo":"VIA VALLA LORENZO   1","Zona":5,"info":"TENNIS","URL":null,"TELEFONO1":"028465872"},"geometry":{"type":"Point","coordinates":[9.187134140461492,45.43473907533545]}},{"type":"Feature","properties":{"FAX":null,"Nome":"A.S. TENNIS CLUB ANEMONI","Indirizzo":"VIA PONTI GIO'   3","Zona":6,"info":"CENTRO SPORTIVO","URL":null,"TELEFONO1":"024123436"},"geometry":{"type":"Point","coordinates":[9.13289516564966,45.4575760711518]}},{"type":"Feature","properties":{"FAX":null,"Nome":"TC PORTA ROMANA","Indirizzo":"VIA SABINA   9","Zona":4,"info":"TENNIS","URL":null,"TELEFONO1":"0288456084"},"geometry":{"type":"Point","coordinates":[9.205986277,45.45367438684014]}},{"type":"Feature","properties":{"FAX":null,"Nome":"A.S. JUNIOR TENNIS DARIO MATTEI GENTILI","Indirizzo":"VIA CAVRIANA   45","Zona":4,"info":"CENTRO SPORTIVO","URL":null,"TELEFONO1":"027388222"},"geometry":{"type":"Point","coordinates":[9.239932916855453,45.46781091292219]}},{"type":"Feature","properties":{"FAX":null,"Nome":"POLISPORTIVA LE LUMACHE","Indirizzo":"VIA BARI   20","Zona":6,"info":"CENTRO SPORTIVO","URL":null,"TELEFONO1":"0288454398"},"geometry":{"type":"Point","coordinates":[9.14871399115743,45.43883383563928]}},{"type":"Feature","properties":{"FAX":null,"Nome":"ASS.  POL.  ACCADEMIA INTERNAZIONALE CALCIO","Indirizzo":"VIA CILEA FRANCESCO   51","Zona":8,"info":"CENTRO SPORTIVO","URL":null,"TELEFONO1":"023539101"},"geometry":{"type":"Point","coordinates":[9.104277409173873,45.49517351633923]}},{"type":"Feature","properties":{"FAX":null,"Nome":"A.S. UNIONE LOMBARDA","Indirizzo":"VIA PONTI GIO'   1","Zona":6,"info":"CENTRO SPORTIVO","URL":null,"TELEFONO1":"024152169"},"geometry":{"type":"Point","coordinates":[9.133385087059592,45.45770359524903]}},{"type":"Feature","properties":{"FAX":null,"Nome":"COOP. AICS OLMI","Indirizzo":"VIA MOSCA ANTONIO   67","Zona":7,"info":"CENTRO SPORTIVO","URL":null,"TELEFONO1":"024564802"},"geometry":{"type":"Point","coordinates":[9.081510043891132,45.4559561727271]}},{"type":"Feature","properties":{"FAX":null,"Nome":"ROGOREDO 84 A.S.D.","Indirizzo":"VIA PIZZOLPASSO FRANCESCO  25","Zona":4,"info":"CENTRO SPORTIVO","URL":"www.rogoredo84.it","TELEFONO1":"0255700188"},"geometry":{"type":"Point","coordinates":[9.245992566966391,45.432571496569466]}},{"type":"Feature","properties":{"FAX":null,"Nome":"A.S. BARONA","Indirizzo":"VIA SAN PAOLINO   9","Zona":6,"info":"CENTRO SPORTIVO","URL":null,"TELEFONO1":"028435661"},"geometry":{"type":"Point","coordinates":[9.165129792163096,45.432640983137645]}},{"type":"Feature","properties":{"FAX":null,"Nome":"AS MOJAZZA","Indirizzo":"VIA PRAMPOLINI CAMILLO   3","Zona":9,"info":"GINNASTICA","URL":"www.asmojazza.org","TELEFONO1":"340786269"},"geometry":{"type":"Point","coordinates":[9.180406862311944,45.498686383025294]}},{"type":"Feature","properties":{"FAX":null,"Nome":"FEDERAZIONE ITALIANA GIOCO CALCIO","Indirizzo":"VIA LAGO DI NEMI   29","Zona":6,"info":"CENTRO SPORTIVO","URL":"www.centrosportivobettinelli.it","TELEFONO1":"0236530766"},"geometry":{"type":"Point","coordinates":[9.148988137674518,45.435268373198795]}},{"type":"Feature","properties":{"FAX":null,"Nome":"TENNIS SQUASH MEDIOLANUM","Indirizzo":"VIA MONTI VINCENZO   57 A","Zona":1,"info":"CALCIO A 5","URL":null,"TELEFONO1":"024690405"},"geometry":{"type":"Point","coordinates":[9.166035142157192,45.47309735234686]}},{"type":"Feature","properties":{"FAX":null,"Nome":"CIRCOLO BOCCIOFILO CACCIALANZA PIETRO","Indirizzo":"VIA PADOVA   91","Zona":2,"info":"BOCCIODROMO","URL":null,"TELEFONO1":"022826059"},"geometry":{"type":"Point","coordinates":[9.228301961489883,45.495197906309]}},{"type":"Feature","properties":{"FAX":"0266118268","Nome":"MILANO SPORT SPA","Indirizzo":"VIA BECCALI LUIGI   7","Zona":9,"info":"PISCINA","URL":"www.milanosport.it","TELEFONO1":"0266103113"},"geometry":{"type":"Point","coordinates":[9.206135922242497,45.51966707964686]}},{"type":"Feature","properties":{"FAX":null,"Nome":"FIN FEDERAZIONE ITALIANA NUOTO LAMPUGNANO","Indirizzo":"VIA LAMPUGNANO   76","Zona":8,"info":"PISCINA","URL":null,"TELEFONO1":"023088390"},"geometry":{"type":"Point","coordinates":[9.115137316757961,45.490690658881455]}},{"type":"Feature","properties":{"FAX":null,"Nome":"CENTRO BALNEARE GIUSEPPE CAIMI","Indirizzo":"VIA BOTTA CARLO   18","Zona":4,"info":"NUOTO","URL":"www.milanosport.it","TELEFONO1":null},"geometry":{"type":"Point","coordinates":[9.204920667485,45.45371515785715]}},{"type":"Feature","properties":{"FAX":null,"Nome":"FRANCO SCARIONI","Indirizzo":"VIA VALFURVA   9","Zona":9,"info":"CENTRO BALNEARE","URL":"www.milanosport.it","TELEFONO1":"026424236"},"geometry":{"type":"Point","coordinates":[9.195636967712867,45.50959029738323]}},{"type":"Feature","properties":{"FAX":null,"Nome":"COMASINA A.S.D.","Indirizzo":"VIA SALEMI   19","Zona":9,"info":"CALCIO A 11","URL":null,"TELEFONO1":"0266202505"},"geometry":{"type":"Point","coordinates":[9.158403865842214,45.525956758371606]}},{"type":"Feature","properties":{"FAX":null,"Nome":"A.C. BRUZZANO","Indirizzo":"VIA COMASINA   115","Zona":9,"info":"CALCIO A 11","URL":null,"TELEFONO1":"026458357"},"geometry":{"type":"Point","coordinates":[9.162037787576336,45.530875374001205]}},{"type":"Feature","properties":{"FAX":null,"Nome":"A.S. TENNIS CLUB LOMBARDO","Indirizzo":"VIA SISMONDI GIANCARLO   8","Zona":4,"info":"CALCIO A 5","URL":null,"TELEFONO1":"0270123145"},"geometry":{"type":"Point","coordinates":[9.22507011119085,45.46546818275026]}},{"type":"Feature","properties":{"FAX":null,"Nome":"NUOVA CANOTTIERI OLONA","Indirizzo":"ALZ NAVIGLIO GRANDE   146","Zona":6,"info":"CENTRO SPORTIVO","URL":null,"TELEFONO1":"0248951494"},"geometry":{"type":"Point","coordinates":[9.153316737033643,45.44745735522542]}},{"type":"Feature","properties":{"FAX":null,"Nome":"POLITECNICO DI MILANO - CS MARIO GIURIATI","Indirizzo":"VIA CARLO PASCAL 6","Zona":3,"info":"CENTRO SPORTIVO","URL":null,"TELEFONO1":"0270600358"},"geometry":{"type":"Point","coordinates":[9.232811100919031,45.47840889868114]}},{"type":"Feature","properties":{"FAX":null,"Nome":"MARIA REGINA PACIS","Indirizzo":"VIA KANT EMANUELE   8","Zona":8,"info":"CALCIO A 11","URL":null,"TELEFONO1":"0288456074"},"geometry":{"type":"Point","coordinates":[9.11757906795117,45.4960026072185]}},{"type":"Feature","properties":{"FAX":null,"Nome":"SANTA BARBARA IN GRATOSOGLIO","Indirizzo":"VIA FERABOLI ACHILLE   27","Zona":5,"info":"CENTRO SPORTIVO","URL":null,"TELEFONO1":"0288454398"},"geometry":{"type":"Point","coordinates":[9.171618114873265,45.41445452611065]}},{"type":"Feature","properties":{"FAX":null,"Nome":"SANTA MARIA ASSUNTA IN QUINTOSOLE","Indirizzo":"VIA QUINTOSOLE 40","Zona":5,"info":"CENTRO SPORTIVO","URL":null,"TELEFONO1":null},"geometry":{"type":"Point","coordinates":[9.203571650606019,45.40198346085324]}},{"type":"Feature","properties":{"FAX":null,"Nome":"SANTA MARIA MADRE DELLA CHIESA","Indirizzo":"VIA SAPONARO MICHELE   28","Zona":5,"info":"CENTRO SPORTIVO","URL":null,"TELEFONO1":null},"geometry":{"type":"Point","coordinates":[9.172285200831876,45.407106001124895]}},{"type":"Feature","properties":{"FAX":null,"Nome":"SAN GIOVANNI BONO","Indirizzo":"VIA SAN PAOLINO   20","Zona":6,"info":"PALLACANESTRO","URL":null,"TELEFONO1":null},"geometry":{"type":"Point","coordinates":[9.162085441534662,45.43049141364996]}},{"type":"Feature","properties":{"FAX":null,"Nome":"SACRA FAMIGLIA IN ROGOREDO","Indirizzo":"VIA MONTE PARALBA   15","Zona":4,"info":"CENTRO SPORTIVO","URL":null,"TELEFONO1":null},"geometry":{"type":"Point","coordinates":[9.24340700878784,45.43232384574066]}},{"type":"Feature","properties":{"FAX":null,"Nome":"SANTA MARIA LIBERATRICE","Indirizzo":"VIA SOLAROLI PAOLO   11","Zona":5,"info":"CALCIO A 11","URL":null,"TELEFONO1":null},"geometry":{"type":"Point","coordinates":[9.198525169264887,45.43662707025517]}},{"type":"Feature","properties":{"FAX":null,"Nome":"SAN MICHELE ARCANGELO E SANTA RITA","Indirizzo":"VIA DEI CINQUECENTO   1","Zona":4,"info":"CENTRO SPORTIVO","URL":"www.smsr.it","TELEFONO1":null},"geometry":{"type":"Point","coordinates":[9.222994591574956,45.43664365925307]}},{"type":"Feature","properties":{"FAX":null,"Nome":"OGNISANTI","Indirizzo":"VIA BESSARIONE   25","Zona":4,"info":"CENTRO SPORTIVO","URL":null,"TELEFONO1":null},"geometry":{"type":"Point","coordinates":[9.216712785634124,45.43833381823125]}},{"type":"Feature","properties":{"FAX":null,"Nome":"SAN GREGORIO BARBARIGO","Indirizzo":"VIA BORDIGHERA   46","Zona":5,"info":"CENTRO SPORTIVO","URL":null,"TELEFONO1":null},"geometry":{"type":"Point","coordinates":[9.173489044368395,45.43852795315672]}},{"type":"Feature","properties":{"FAX":null,"Nome":"SANTI QUATTRO EVANGELISTI","Indirizzo":"VIA PEZZOTTI GIOVANNI   53","Zona":5,"info":"CENTRO SPORTIVO","URL":"www.4evangelisti.net","TELEFONO1":null},"geometry":{"type":"Point","coordinates":[9.183653346340826,45.439503316947004]}},{"type":"Feature","properties":{"FAX":null,"Nome":"SAN SILVESTRO","Indirizzo":"VIA LODOVICO IL MORO   171","Zona":6,"info":"CENTRO SPORTIVO","URL":null,"TELEFONO1":null},"geometry":{"type":"Point","coordinates":[9.1277610694756,45.440253017973]}},{"type":"Feature","properties":{"FAX":null,"Nome":"SANTI NAZARO E CELSO","Indirizzo":"VIA ZUMBINI BONAVENTURA   19","Zona":6,"info":"CENTRO SPORTIVO","URL":"www.parrocchiabarona.it","TELEFONO1":null},"geometry":{"type":"Point","coordinates":[9.159468410290525,45.44141493229128]}},{"type":"Feature","properties":{"FAX":null,"Nome":"MADONNA DELLA MEDAGLIA MIRACOLOSA","Indirizzo":"VIA F.LLI ROSSELLI   6","Zona":4,"info":"CENTRO SPORTIVO","URL":null,"TELEFONO1":null},"geometry":{"type":"Point","coordinates":[9.225249027633437,45.442364313957626]}},{"type":"Feature","properties":{"FAX":null,"Nome":"SANTA MARIA DI CARAVAGGIO","Indirizzo":"VIA BRIOSCHI FRANCESCO   38","Zona":5,"info":"CENTRO SPORTIVO","URL":null,"TELEFONO1":null},"geometry":{"type":"Point","coordinates":[9.18080972320852,45.444455555685614]}},{"type":"Feature","properties":{"FAX":null,"Nome":"SAN LUIGI GONZAGA","Indirizzo":"VIA TAGLIAMENTO   10","Zona":4,"info":"CENTRO SPORTIVO","URL":null,"TELEFONO1":null},"geometry":{"type":"Point","coordinates":[9.213329468961284,45.44366529402869]}},{"type":"Feature","properties":{"FAX":null,"Nome":"BEATAVERGINE ADDOLORATA","Indirizzo":"VLE UNGHERIA   32","Zona":4,"info":"CENTRO SPORTIVO","URL":null,"TELEFONO1":null},"geometry":{"type":"Point","coordinates":[9.24945071018574,45.445817882883055]}},{"type":"Feature","properties":{"FAX":null,"Nome":"SAN CIPRIANO","Indirizzo":"VIA D'ADDA CARLO   31","Zona":6,"info":"PALLACANESTRO","URL":null,"TELEFONO1":null},"geometry":{"type":"Point","coordinates":[9.1619825378063,45.445516423397294]}},{"type":"Feature","properties":{"FAX":null,"Nome":"SAN CURATO D'ARS","Indirizzo":"LGO GIAMBELLINO   127","Zona":6,"info":"CENTRO SPORTIVO","URL":null,"TELEFONO1":null},"geometry":{"type":"Point","coordinates":[9.136229204798195,45.44646927840988]}},{"type":"Feature","properties":{"FAX":null,"Nome":"SANT'ANDREA","Indirizzo":"VIA CREMA   24","Zona":5,"info":"CENTRO SPORTIVO","URL":null,"TELEFONO1":null},"geometry":{"type":"Point","coordinates":[9.202422748471578,45.44817569953642]}},{"type":"Feature","properties":{"FAX":null,"Nome":"BEATA VERGINE IMMACOLATA E SANT'ANTONIO","Indirizzo":"VLE CORSICA   68","Zona":4,"info":"CENTRO SPORTIVO","URL":null,"TELEFONO1":null},"geometry":{"type":"Point","coordinates":[9.231692223375155,45.46193855921253]}},{"type":"Feature","properties":{"FAX":null,"Nome":"PREZIOSISSIMO SANGUE DI N.S.G.C.","Indirizzo":"VIA CIPRO   10","Zona":4,"info":"CENTRO SPORTIVO","URL":null,"TELEFONO1":null},"geometry":{"type":"Point","coordinates":[9.222033128264627,45.461515413018894]}},{"type":"Feature","properties":{"FAX":null,"Nome":"MADONNA DEI POVERI","Indirizzo":"PZA MADONNA DEI POVERI   1","Zona":7,"info":"TENNIS","URL":null,"TELEFONO1":null},"geometry":{"type":"Point","coordinates":[9.11259990040362,45.462110864704385]}},{"type":"Feature","properties":{"FAX":null,"Nome":"GESU' BUON PASTORE E S. MATTEO","Indirizzo":"VIA CABOTO SEBASTIANO   2","Zona":7,"info":"CENTRO SPORTIVO","URL":null,"TELEFONO1":null},"geometry":{"type":"Point","coordinates":[9.156246054342322,45.462162025713376]}},{"type":"Feature","properties":{"FAX":null,"Nome":"SAN VITTORE AL CORPO","Indirizzo":"VIA DEGLI OLIVETANI   3","Zona":1,"info":"CENTRO SPORTIVO","URL":null,"TELEFONO1":null},"geometry":{"type":"Point","coordinates":[9.169337243683136,45.462328351258925]}},{"type":"Feature","properties":{"FAX":null,"Nome":"SANTA MARIA DEL SUFFRAGIO","Indirizzo":"VIA BONVESIN DE LA RIVA   2","Zona":4,"info":"CENTRO SPORTIVO","URL":null,"TELEFONO1":null},"geometry":{"type":"Point","coordinates":[9.21219360844846,45.46316428908207]}},{"type":"Feature","properties":{"FAX":null,"Nome":"SANTI MM. NABORE E FELICE","Indirizzo":"VIA GULLI TOMMASO   62","Zona":7,"info":"CENTRO SPORTIVO","URL":null,"TELEFONO1":null},"geometry":{"type":"Point","coordinates":[9.128662590250002,45.465542510642265]}},{"type":"Feature","properties":{"FAX":null,"Nome":"SAN PROTASO","Indirizzo":"VIA OSOPPO   2","Zona":7,"info":"CENTRO SPORTIVO","URL":null,"TELEFONO1":null},"geometry":{"type":"Point","coordinates":[9.143685518044055,45.469772315454904]}},{"type":"Feature","properties":{"FAX":null,"Nome":"SANTA CROCE","Indirizzo":"VIA GOLDONI CARLO   75","Zona":3,"info":"CENTRO SPORTIVO","URL":null,"TELEFONO1":null},"geometry":{"type":"Point","coordinates":[9.22104879670618,45.46939719107796]}},{"type":"Feature","properties":{"FAX":null,"Nome":"SANTI MARTIRI NEREO E ACHILLEO","Indirizzo":"PZA SAN GEROLAMO   15","Zona":3,"info":"CENTRO SPORTIVO","URL":null,"TELEFONO1":null},"geometry":{"type":"Point","coordinates":[9.237063128880884,45.469875896766304]}},{"type":"Feature","properties":{"FAX":null,"Nome":"SAN VINCENZO DE' PAOLI","Indirizzo":"VIA PISACANE CARLO   32","Zona":3,"info":"CALCIO A 11","URL":null,"TELEFONO1":null},"geometry":{"type":"Point","coordinates":[9.211345399618645,45.47157010056023]}},{"type":"Feature","properties":{"FAX":null,"Nome":"MATER AMABILIS","Indirizzo":"VIA PREVIATI GAETANO   8","Zona":7,"info":"CENTRO SPORTIVO","URL":null,"TELEFONO1":null},"geometry":{"type":"Point","coordinates":[9.150736599208136,45.47275198091397]}},{"type":"Feature","properties":{"FAX":null,"Nome":"SAN MARCO","Indirizzo":"PZA SAN MARCO   2","Zona":1,"info":"CENTRO SPORTIVO","URL":null,"TELEFONO1":null},"geometry":{"type":"Point","coordinates":[9.18815788352977,45.47339954943103]}},{"type":"Feature","properties":{"FAX":null,"Nome":"BEATA VERGINE ADDOLORATA IN S. SIRO","Indirizzo":"PZA ESQUILINO   1","Zona":7,"info":"CENTRO SPORTIVO","URL":null,"TELEFONO1":null},"geometry":{"type":"Point","coordinates":[9.133411922461816,45.47538402205043]}},{"type":"Feature","properties":{"FAX":null,"Nome":"SANTA ELENA","Indirizzo":"PZA SANT' ELENA   5","Zona":7,"info":"CENTRO SPORTIVO","URL":null,"TELEFONO1":null},"geometry":{"type":"Point","coordinates":[9.11155606916259,45.47585878464311]}},{"type":"Feature","properties":{"FAX":null,"Nome":"MADONNA DELLA DIVINA PROVVIDENZA","Indirizzo":"VIA ARPINO   11","Zona":7,"info":"CENTRO SPORTIVO","URL":null,"TELEFONO1":null},"geometry":{"type":"Point","coordinates":[9.08983878957727,45.47701024574644]}},{"type":"Feature","properties":{"FAX":null,"Nome":"ORATORIO S. GIUSEPPE","Indirizzo":"VIA REDI FRANCESCO   21","Zona":3,"info":"CENTRO SPORTIVO","URL":null,"TELEFONO1":null},"geometry":{"type":"Point","coordinates":[9.213184971103761,45.477360617592566]}},{"type":"Feature","properties":{"FAX":null,"Nome":"SAN PIO X","Indirizzo":"VIA VILLANI GIOVANNI   2","Zona":3,"info":"CENTRO SPORTIVO","URL":null,"TELEFONO1":null},"geometry":{"type":"Point","coordinates":[9.225834144421464,45.479795150395375]}},{"type":"Feature","properties":{"FAX":null,"Nome":"SAN MARTINO IN LAMBRATE","Indirizzo":"VIA DEI CANZI   28","Zona":3,"info":"CENTRO SPORTIVO","URL":null,"TELEFONO1":null},"geometry":{"type":"Point","coordinates":[9.242865301186376,45.48085264753332]}},{"type":"Feature","properties":{"FAX":null,"Nome":"SANTO SPIRITO","Indirizzo":"VIA BASSINI EDOARDO   50","Zona":3,"info":"CENTRO SPORTIVO","URL":null,"TELEFONO1":null},"geometry":{"type":"Point","coordinates":[9.236977371803414,45.48129702688092]}},{"type":"Feature","properties":{"FAX":null,"Nome":"SANTA MARIA NASCENTE","Indirizzo":"PZA SANTA MARIA NASCENTE   2","Zona":8,"info":"CENTRO SPORTIVO","URL":null,"TELEFONO1":null},"geometry":{"type":"Point","coordinates":[9.13779274900019,45.48621582678602]}},{"type":"Feature","properties":{"FAX":null,"Nome":"SACRO VOLTO","Indirizzo":"VIA BORSIERI PIETRO   18","Zona":9,"info":"CENTRO SPORTIVO","URL":null,"TELEFONO1":null},"geometry":{"type":"Point","coordinates":[9.188834224071446,45.48715642380017]}},{"type":"Feature","properties":{"FAX":null,"Nome":"SAN IGNAZIO DI LOYOLA","Indirizzo":"VIA PISANI DOSSI CARLO ALBERTO   25","Zona":3,"info":"CENTRO SPORTIVO","URL":null,"TELEFONO1":null},"geometry":{"type":"Point","coordinates":[9.24328865323445,45.48857751433164]}},{"type":"Feature","properties":{"FAX":null,"Nome":"SANT'AGOSTINO","Indirizzo":"VIA COPERNICO NICOLO'   9","Zona":2,"info":"CALCIO A 11","URL":null,"TELEFONO1":null},"geometry":{"type":"Point","coordinates":[9.201118912046924,45.48806267380804]}},{"type":"Feature","properties":{"FAX":null,"Nome":"SAN GIOVANNI BATTISTA IN TRENNO","Indirizzo":"VIA RATTI LUIGI   24","Zona":8,"info":"CENTRO SPORTIVO","URL":null,"TELEFONO1":null},"geometry":{"type":"Point","coordinates":[9.099404589865962,45.49116992756044]}},{"type":"Feature","properties":{"FAX":null,"Nome":"SANTA CECILIA","Indirizzo":"VIA DELLA CASA GIOVANNI   15","Zona":8,"info":"CENTRO SPORTIVO","URL":null,"TELEFONO1":null},"geometry":{"type":"Point","coordinates":[9.134749177713703,45.494883360751594]}},{"type":"Feature","properties":{"FAX":null,"Nome":"SAN ROCCO AL GENTILINO","Indirizzo":"PZA CARO TITO LUCREZIO   7","Zona":5,"info":"CENTRO SPORTIVO","URL":null,"TELEFONO1":null},"geometry":{"type":"Point","coordinates":[9.183868679354648,45.448946247267905]}},{"type":"Feature","properties":{"FAX":null,"Nome":"SANTA MARCELLINA","Indirizzo":"VIA MOSCA ANTONIO   185","Zona":7,"info":"CENTRO SPORTIVO","URL":null,"TELEFONO1":null},"geometry":{"type":"Point","coordinates":[9.07018691428479,45.451045094359735]}},{"type":"Feature","properties":{"FAX":null,"Nome":"SANTI ANGELI CUSTODI","Indirizzo":"VIA COLLETTA PIETRO   21","Zona":4,"info":"CENTRO SPORTIVO","URL":null,"TELEFONO1":null},"geometry":{"type":"Point","coordinates":[9.208608976407637,45.450196159657914]}},{"type":"Feature","properties":{"FAX":null,"Nome":"SUORE MISERICORDINE","Indirizzo":"VIA CORSICO   10","Zona":6,"info":"CENTRO SPORTIVO","URL":null,"TELEFONO1":null},"geometry":{"type":"Point","coordinates":[9.173427285225793,45.45205261428391]}},{"type":"Feature","properties":{"FAX":null,"Nome":"SAN EUGENIO","Indirizzo":"VIA DEL TURCHINO   9","Zona":4,"info":"CENTRO SPORTIVO","URL":null,"TELEFONO1":null},"geometry":{"type":"Point","coordinates":[9.225951227529976,45.451617331959]}},{"type":"Feature","properties":{"FAX":null,"Nome":"SAN PIO V","Indirizzo":"VIA LATTANZIO   60","Zona":4,"info":"CENTRO SPORTIVO","URL":null,"TELEFONO1":null},"geometry":{"type":"Point","coordinates":[9.216822032882876,45.452443679458696]}},{"type":"Feature","properties":{"FAX":null,"Nome":"MADONNA DELLA FEDE","Indirizzo":"VIA DELLE BETULLE   16","Zona":7,"info":"CENTRO SPORTIVO","URL":null,"TELEFONO1":null},"geometry":{"type":"Point","coordinates":[9.081415915209027,45.453440800705586]}},{"type":"Feature","properties":{"FAX":null,"Nome":"SAN GALDINO","Indirizzo":"VIA SALOMONE ORESTE   23","Zona":4,"info":"CENTRO SPORTIVO","URL":null,"TELEFONO1":null},"geometry":{"type":"Point","coordinates":[9.241709393445277,45.45401036952019]}},{"type":"Feature","properties":{"FAX":null,"Nome":"SAN GIOVANNI BATTISTA ALLA CRETA","Indirizzo":"PZA SAN GIOVANNI BATTISTA ALLA CRETA   11","Zona":6,"info":"CENTRO SPORTIVO","URL":null,"TELEFONO1":null},"geometry":{"type":"Point","coordinates":[9.121403722031364,45.45464357313248]}},{"type":"Feature","properties":{"FAX":null,"Nome":"SAN VINCENZO IN PRATO","Indirizzo":"VIA CONCA DEL NAVIGLIO   28","Zona":1,"info":"CENTRO SPORTIVO","URL":null,"TELEFONO1":null},"geometry":{"type":"Point","coordinates":[9.177003346869618,45.455393113686526]}},{"type":"Feature","properties":{"FAX":null,"Nome":"SANTA MARIA DEL ROSARIO","Indirizzo":"VIA BERGOGNONE AMBROGIO DA FOSSANO   8","Zona":6,"info":"CENTRO SPORTIVO","URL":null,"TELEFONO1":null},"geometry":{"type":"Point","coordinates":[9.1622215141822,45.45568983908075]}},{"type":"Feature","properties":{"FAX":null,"Nome":"SAN FRANCESCO DI SALES","Indirizzo":"VIA DELLA COMMENDA   37","Zona":1,"info":"CALCIO A 11","URL":null,"TELEFONO1":null},"geometry":{"type":"Point","coordinates":[9.199464333464045,45.45578621777083]}},{"type":"Feature","properties":{"FAX":null,"Nome":"SAN PIER GIULIANO EYMARD","Indirizzo":"VIA VALSESIA   96","Zona":7,"info":"CENTRO SPORTIVO","URL":"www.sanpiergiuliano.org","TELEFONO1":null},"geometry":{"type":"Point","coordinates":[9.094573905746588,45.45579843497936]}},{"type":"Feature","properties":{"FAX":"0255011903","Nome":"SANTI SILVESTRO E MARTINO","Indirizzo":"VLE LAZIO   19","Zona":4,"info":"CENTRO SPORTIVO","URL":"www.silvestromartino.com","TELEFONO1":"0255189340"},"geometry":{"type":"Point","coordinates":[9.207496198990315,45.455718827493605]}},{"type":"Feature","properties":{"FAX":null,"Nome":"CASA OPERE PARROCHIALI","Indirizzo":"VIA SFORZA FRANCESCO   44","Zona":1,"info":"CENTRO SPORTIVO","URL":null,"TELEFONO1":null},"geometry":{"type":"Point","coordinates":[9.193689189891456,45.45808404935828]}},{"type":"Feature","properties":{"FAX":null,"Nome":"SAN NICOLAO DELLA FLUE","Indirizzo":"VIA DALMAZIA   11","Zona":4,"info":"TENNIS","URL":"www.sannicolao.it","TELEFONO1":null},"geometry":{"type":"Point","coordinates":[9.244983282151917,45.458646273695095]}},{"type":"Feature","properties":{"FAX":null,"Nome":"SAN LUIGI","Indirizzo":"VIA CABELLA BARTOLOMEO   18","Zona":7,"info":"CENTRO SPORTIVO","URL":null,"TELEFONO1":null},"geometry":{"type":"Point","coordinates":[9.093080267212907,45.45923379453508]}},{"type":"Feature","properties":{"FAX":null,"Nome":"SAN GIOVANNI CRISOTOMO","Indirizzo":"VIA CAMBINI LEONARDO   10","Zona":2,"info":"CENTRO SPORTIVO","URL":null,"TELEFONO1":null},"geometry":{"type":"Point","coordinates":[9.230645478444934,45.49568607166036]}},{"type":"Feature","properties":{"FAX":null,"Nome":"SANT'ANGELA MERICI PADRI SACRAMENTINI","Indirizzo":"VIA CAGLIERO GIOVANNI   26","Zona":2,"info":"CENTRO SPORTIVO","URL":null,"TELEFONO1":null},"geometry":{"type":"Point","coordinates":[9.20050355822205,45.496857052402426]}},{"type":"Feature","properties":{"FAX":null,"Nome":"GESU' MARIA E GIUSEPPE","Indirizzo":"VIA MAC MAHON   113","Zona":8,"info":"CENTRO SPORTIVO","URL":null,"TELEFONO1":null},"geometry":{"type":"Point","coordinates":[9.152500441365424,45.49780669766892]}},{"type":"Feature","properties":{"FAX":null,"Nome":"SANTA MARIA ASSUNTA IN TURRO","Indirizzo":"PZA ANELLI GIACOMO   4","Zona":2,"info":"CENTRO SPORTIVO","URL":null,"TELEFONO1":"0288454398"},"geometry":{"type":"Point","coordinates":[9.223405566175263,45.4980199897015]}},{"type":"Feature","properties":{"FAX":"0240910888","Nome":"HARBOUR CLUB MILANO","Indirizzo":"VIA CASCINA BELLARIA   19","Zona":7,"info":"BODY BUILDING","URL":null,"TELEFONO1":"02452861"},"geometry":{"type":"Point","coordinates":[9.10559804117566,45.48118199596979]}},{"type":"Feature","properties":{"FAX":null,"Nome":"MILAN CLUB S. APOLLINARE","Indirizzo":"VIA CASTROVILLARI   14","Zona":7,"info":"CENTRO SPORTIVO","URL":null,"TELEFONO1":"0288456084"},"geometry":{"type":"Point","coordinates":[9.085787553394841,45.45714082035522]}},{"type":"Feature","properties":{"FAX":null,"Nome":"J.F. KENNEDY","Indirizzo":"VIA OLIVIERI ALESSIO   15","Zona":7,"info":"BASEBALL","URL":null,"TELEFONO1":"0247996783"},"geometry":{"type":"Point","coordinates":[9.111352447986816,45.46575616597146]}},{"type":"Feature","properties":{"FAX":null,"Nome":"ISTITUTO LEONE XIII","Indirizzo":"VIA ROSSETTI GABRIELE   4","Zona":8,"info":"CENTRO SPORTIVO","URL":null,"TELEFONO1":"024385021"},"geometry":{"type":"Point","coordinates":[9.161288319409344,45.47336867010695]}},{"type":"Feature","properties":{"FAX":null,"Nome":"ASSOCIAZIONE QUARTO OGGIARO VIVIBILE","Indirizzo":"VIA INVERNIZIO CAROLINA   7","Zona":8,"info":"PALLACANESTRO","URL":null,"TELEFONO1":"023574577"},"geometry":{"type":"Point","coordinates":[9.135149747989466,45.51386637910392]}},{"type":"Feature","properties":{"FAX":null,"Nome":"A.S. SEMPIONE HALF 1919","Indirizzo":"VIA ALDINI ANTONIO   77","Zona":8,"info":"CENTRO SPORTIVO","URL":null,"TELEFONO1":"0239002250"},"geometry":{"type":"Point","coordinates":[9.1305036068357,45.51136801082123]}},{"type":"Feature","properties":{"FAX":null,"Nome":"CLUB DEGLI AMICI VILLAPIZZONE","Indirizzo":"VIA PERIN DEL VAGA   11","Zona":8,"info":"CENTRO SPORTIVO","URL":null,"TELEFONO1":"023086773"},"geometry":{"type":"Point","coordinates":[9.13446758105821,45.49952135167099]}},{"type":"Feature","properties":{"FAX":null,"Nome":"G.S. S. ROMANO","Indirizzo":"VIA ARMANDO PICCHI    1","Zona":8,"info":"CENTRO SPORTIVO","URL":null,"TELEFONO1":"0238100024"},"geometry":{"type":"Point","coordinates":[9.104907024176708,45.499342659061206]}},{"type":"Feature","properties":{"FAX":null,"Nome":"ASSOCIAZIONE  TENNIS CLUB NIEVO IPPOLITO","Indirizzo":"VIA UGUCCIONE DA PISA   1","Zona":8,"info":"CENTRO SPORTIVO","URL":null,"TELEFONO1":"0288456074"},"geometry":{"type":"Point","coordinates":[9.162076382317345,45.47463889521697]}},{"type":"Feature","properties":{"FAX":null,"Nome":"FEDERAZIONE ITALIANA BOCCE BOCC. CANDIANI","Indirizzo":"VIA CANDIANI GIUSEPPE    26","Zona":9,"info":"BOCCIODROMO","URL":null,"TELEFONO1":"023760633"},"geometry":{"type":"Point","coordinates":[9.170428966770288,45.5049568776702]}},{"type":"Feature","properties":{"FAX":null,"Nome":"SOCIETA' COOP. A R.L. TENNIS MASTER","Indirizzo":"VIA GOVONE GIUSEPPE   67","Zona":8,"info":"TENNIS","URL":null,"TELEFONO1":"023494041"},"geometry":{"type":"Point","coordinates":[9.162106867855606,45.49319212761981]}},{"type":"Feature","properties":{"FAX":null,"Nome":"A.S. MASSERONI MARCHESE","Indirizzo":"VIA MADRUZZO CRISTOFORO   3","Zona":8,"info":"CALCIO A 11","URL":null,"TELEFONO1":"02466142"},"geometry":{"type":"Point","coordinates":[9.148445256946102,45.480371047526994]}},{"type":"Feature","properties":{"FAX":null,"Nome":"GIOVANNI MAURO","Indirizzo":"VIA USSI STEFANO   18","Zona":9,"info":"CENTRO SPORTIVO","URL":"www.villacalcio.milano.it","TELEFONO1":"026435564"},"geometry":{"type":"Point","coordinates":[9.209480228341201,45.50749680458889]}},{"type":"Feature","properties":{"FAX":"0258100012","Nome":"MILANO SPORT SPA","Indirizzo":"VIA SEGANTINI GIOVANNI   6","Zona":6,"info":"CENTRO BALNEARE","URL":"www.milanosport.it","TELEFONO1":"0258100012"},"geometry":{"type":"Point","coordinates":[9.172845410701324,45.449328338452275]}},{"type":"Feature","properties":{"FAX":null,"Nome":"SANTI GIOVANNI E PAOLO","Indirizzo":"VIA CATONE MARCO PORCIO   10","Zona":9,"info":"CENTRO SPORTIVO","URL":null,"TELEFONO1":null},"geometry":{"type":"Point","coordinates":[9.17131324804167,45.49788761369332]}},{"type":"Feature","properties":{"FAX":null,"Nome":"SANTA MARCELINA E SAN GIUSEPPE ALLA CERTOSA","Indirizzo":"VLE ESPINASSE CARLO   85","Zona":8,"info":"CENTRO SPORTIVO","URL":null,"TELEFONO1":null},"geometry":{"type":"Point","coordinates":[9.141142850503636,45.49857490450228]}},{"type":"Feature","properties":{"FAX":null,"Nome":"SAN GEROLAMO EMILIANI","Indirizzo":"VIA CALABRIA DON GIOVANNI   36","Zona":3,"info":"CENTRO SPORTIVO","URL":null,"TELEFONO1":null},"geometry":{"type":"Point","coordinates":[9.24508306249077,45.50113842349686]}},{"type":"Feature","properties":{"FAX":null,"Nome":"SAN MARTINO IN VILLAPIZZONE","Indirizzo":"PZA VILLAPIZZONE   10","Zona":8,"info":"CENTRO SPORTIVO","URL":null,"TELEFONO1":null},"geometry":{"type":"Point","coordinates":[9.148714472055847,45.501423820056175]}},{"type":"Feature","properties":{"FAX":null,"Nome":"SANTA TERESA DEL BAMBIN GESU'","Indirizzo":"VIA ARISTOTELE   8","Zona":2,"info":"CENTRO SPORTIVO","URL":null,"TELEFONO1":null},"geometry":{"type":"Point","coordinates":[9.224579009782714,45.50589472325905]}},{"type":"Feature","properties":{"FAX":null,"Nome":"SAN CARLO ALLA CA' GRANDA","Indirizzo":"LGO RAPALLO   5","Zona":9,"info":"CENTRO SPORTIVO","URL":null,"TELEFONO1":null},"geometry":{"type":"Point","coordinates":[9.1926125518906,45.50646108017289]}},{"type":"Feature","properties":{"FAX":null,"Nome":"QIQJAN","Indirizzo":"VIA FARINI CARLO   17","Zona":8,"info":"CENTRO SPORTIVO","URL":null,"TELEFONO1":null},"geometry":{"type":"Point","coordinates":[9.181811744497834,45.48522396094795]}},{"type":"Feature","properties":{"FAX":null,"Nome":"SACRA FAMIGLIA","Indirizzo":"VIA BUONARROTI MICHELANGELO   49","Zona":8,"info":"CENTRO SPORTIVO","URL":null,"TELEFONO1":null},"geometry":{"type":"Point","coordinates":[9.155161609290301,45.47268240477625]}},{"type":"Feature","properties":{"FAX":null,"Nome":"SAN SIMPLICIANO","Indirizzo":"PZA SAN SIMPLICIANO   7","Zona":1,"info":"CALCIO A 11","URL":null,"TELEFONO1":null},"geometry":{"type":"Point","coordinates":[9.184052460681475,45.47388548476398]}},{"type":"Feature","properties":{"FAX":null,"Nome":"SAN FRANCESCO D'ASSISI AL FOPPONINO","Indirizzo":"VIA GIOVIO PAOLO   41","Zona":7,"info":"CENTRO SPORTIVO","URL":null,"TELEFONO1":null},"geometry":{"type":"Point","coordinates":[9.162239915572064,45.462437228651964]}},{"type":"Feature","properties":{"FAX":null,"Nome":"SANT'AMBROGIO","Indirizzo":"PZA SANT' AMBROGIO   15","Zona":1,"info":"CENTRO SPORTIVO","URL":null,"TELEFONO1":null},"geometry":{"type":"Point","coordinates":[9.176063004115209,45.46322731485931]}},{"type":"Feature","properties":{"FAX":null,"Nome":"ISITUTO CASATI","Indirizzo":"VIA ARENA   13","Zona":1,"info":"CENTRO SPORTIVO","URL":null,"TELEFONO1":null},"geometry":{"type":"Point","coordinates":[9.179353410967328,45.45587157730819]}},{"type":"Feature","properties":{"FAX":null,"Nome":"ISTITUTO SUORE SANTA DOROTEA DI CEMMO","Indirizzo":"VLE GIOVANNI DA CERMENATE   4","Zona":5,"info":"CENTRO SPORTIVO","URL":null,"TELEFONO1":null},"geometry":{"type":"Point","coordinates":[9.17668939504701,45.43729584283658]}},{"type":"Feature","properties":{"FAX":null,"Nome":"SANTA MARIA ANNUNCIATA IN CHIESA ROSSA","Indirizzo":"VIA NEERA ANNA   24","Zona":5,"info":"CENTRO SPORTIVO","URL":null,"TELEFONO1":null},"geometry":{"type":"Point","coordinates":[9.178196876325167,45.43293937351914]}},{"type":"Feature","properties":{"FAX":null,"Nome":"ISTITUTO ZACCARIA","Indirizzo":"VIA DELLA COMMENDA   3","Zona":1,"info":"CENTRO SPORTIVO","URL":null,"TELEFONO1":null},"geometry":{"type":"Point","coordinates":[9.198823659574561,45.45949763974449]}},{"type":"Feature","properties":{"FAX":null,"Nome":"MONASTERO S. BENEDETTO","Indirizzo":"VIA BELLOTTI FELICE   10","Zona":3,"info":"FITNESS MACCHINE","URL":null,"TELEFONO1":null},"geometry":{"type":"Point","coordinates":[9.208890244146955,45.47063855827585]}},{"type":"Feature","properties":{"FAX":null,"Nome":"MARIA AUSILIATRICE","Indirizzo":"VLE SUZZANI GIOVANNI   64","Zona":9,"info":"CENTRO SPORTIVO","URL":null,"TELEFONO1":null},"geometry":{"type":"Point","coordinates":[9.199051077298964,45.50842316040229]}},{"type":"Feature","properties":{"FAX":null,"Nome":"SANTA MARIA ROSSA","Indirizzo":"VIA BERRA DOMENICO   11","Zona":2,"info":"CENTRO SPORTIVO","URL":null,"TELEFONO1":null},"geometry":{"type":"Point","coordinates":[9.2488384537727,45.50860178659559]}},{"type":"Feature","properties":{"FAX":null,"Nome":"ANNUNCIAZIONE","Indirizzo":"VIA SCIALOIA VITTORIO   5","Zona":9,"info":"CENTRO SPORTIVO","URL":null,"TELEFONO1":null},"geometry":{"type":"Point","coordinates":[9.178573668762093,45.51209406025247]}},{"type":"Feature","properties":{"FAX":null,"Nome":"SAN MICHELE ARCANGELO IN PRECOTTO","Indirizzo":"VLE MONZA   224","Zona":2,"info":"CENTRO SPORTIVO","URL":"www.parrocchiasanmicheleprecotto.org","TELEFONO1":null},"geometry":{"type":"Point","coordinates":[9.22496565909284,45.51286908006738]}},{"type":"Feature","properties":{"FAX":null,"Nome":"SAN FILIPPO NERI IN BOVISASCA","Indirizzo":"VIA GABBRO   2","Zona":9,"info":"CENTRO SPORTIVO","URL":null,"TELEFONO1":null},"geometry":{"type":"Point","coordinates":[9.158296847824449,45.51467159854489]}},{"type":"Feature","properties":{"FAX":null,"Nome":"SANT'AGNESE","Indirizzo":"VIA ARSIA   3","Zona":8,"info":"CENTRO SPORTIVO","URL":null,"TELEFONO1":null},"geometry":{"type":"Point","coordinates":[9.128026910719205,45.51445876053131]}},{"type":"Feature","properties":{"FAX":null,"Nome":"SANTA LUCIA","Indirizzo":"VIA DE ROBERTO FEDERICO   20","Zona":8,"info":"CENTRO SPORTIVO","URL":null,"TELEFONO1":null},"geometry":{"type":"Point","coordinates":[9.141076478796977,45.51566179546654]}},{"type":"Feature","properties":{"FAX":null,"Nome":"SAN MARTINO IN NIGUARDA","Indirizzo":"PZA BELLOVESO   5","Zona":9,"info":"CENTRO SPORTIVO","URL":null,"TELEFONO1":null},"geometry":{"type":"Point","coordinates":[9.194565965845642,45.51574871666717]}},{"type":"Feature","properties":{"FAX":null,"Nome":"G.S. LA SPEZIA CALCIO","Indirizzo":"VLE FAMAGOSTA   79","Zona":6,"info":"CENTRO SPORTIVO","URL":null,"TELEFONO1":"0289501307"},"geometry":{"type":"Point","coordinates":[9.167899563933023,45.43781348602455]}},{"type":"Feature","properties":{"FAX":null,"Nome":"FEDERAZIONE GINNASTICA D'ITALIA","Indirizzo":"VIA OVADA   40","Zona":6,"info":"CENTRO SPORTIVO","URL":"www.fgilombarida.it","TELEFONO1":"0289122083"},"geometry":{"type":"Point","coordinates":[9.161883028821713,45.43593308189938]}},{"type":"Feature","properties":{"FAX":null,"Nome":"PALAUNO","Indirizzo":"LARGO BALESTRA ANTONIO   5","Zona":6,"info":"CENTRO SPORTIVO","URL":null,"TELEFONO1":"024235448"},"geometry":{"type":"Point","coordinates":[9.142432799601727,45.44721906894475]}},{"type":"Feature","properties":{"FAX":"0248300873","Nome":"GIORDANO DELL'AMORE","Indirizzo":"VIA GONIN FRANCESCO   16","Zona":6,"info":"CENTRO SPORTIVO","URL":"www.lorenteggio.sistemacalcio.com","TELEFONO1":"0248300873"},"geometry":{"type":"Point","coordinates":[9.126243652555209,45.44358433589685]}},{"type":"Feature","properties":{"FAX":null,"Nome":"A.S. CAMPO OLIMPIA","Indirizzo":"VIA SODERINI LUIGI   41 2","Zona":6,"info":"CENTRO SPORTIVO","URL":null,"TELEFONO1":null},"geometry":{"type":"Point","coordinates":[9.138024702446407,45.455141343961586]}},{"type":"Feature","properties":{"FAX":null,"Nome":"U.S.  ACLI  I  S.C.R.L.","Indirizzo":"VIA LOPE DE VEGA FELICE   35","Zona":6,"info":"CENTRO SPORTIVO","URL":"www.aclimilano.com/impianti","TELEFONO1":"0289128379"},"geometry":{"type":"Point","coordinates":[9.163075004744377,45.43936045344794]}},{"type":"Feature","properties":{"FAX":"024121821","Nome":"AGORA'","Indirizzo":"VIA DEI CICLAMINI   23","Zona":6,"info":"CENTRO SPORTIVO","URL":"www.stadioghiaccio.it","TELEFONO1":"0248300946"},"geometry":{"type":"Point","coordinates":[9.12855615574659,45.455054361630395]}},{"type":"Feature","properties":{"FAX":null,"Nome":"ISTITUTO SALESIANO DON BOSCO","Indirizzo":"VIA GIOIA MELCHIORRE   50","Zona":2,"info":"CENTRO SPORTIVO","URL":null,"TELEFONO1":null},"geometry":{"type":"Point","coordinates":[9.199829456527013,45.48824677993925]}},{"type":"Feature","properties":{"FAX":null,"Nome":"ACCADEMIA DEL KARATE STUDIO SHIRAI","Indirizzo":"VIA FRIULI   65","Zona":4,"info":"GINNASTICA","URL":null,"TELEFONO1":"025516054"},"geometry":{"type":"Point","coordinates":[9.214534324101859,45.456155952165034]}},{"type":"Feature","properties":{"FAX":"02782693","Nome":"STUDIO PILATES SRL","Indirizzo":"VIA MORELLI GIOVANNI   4","Zona":1,"info":"GINNASTICA","URL":null,"TELEFONO1":"02782693"},"geometry":{"type":"Point","coordinates":[9.206304786379059,45.47182462329122]}},{"type":"Feature","properties":{"FAX":"023088183","Nome":"FUORI DI DANZA SNC DI C. RICHARDSON E G. RIVA","Indirizzo":"VIA GALLARATE   50","Zona":8,"info":"GINNASTICA","URL":null,"TELEFONO1":"023088183"},"geometry":{"type":"Point","coordinates":[9.13765080138863,45.49518025406509]}},{"type":"Feature","properties":{"FAX":null,"Nome":"ALBERO DELLA VITA","Indirizzo":"VIA GORKI MASSIMO   1","Zona":6,"info":"GINNASTICA","URL":null,"TELEFONO1":"02428675"},"geometry":{"type":"Point","coordinates":[9.150291364404811,45.45089402399945]}},{"type":"Feature","properties":{"FAX":"0229529213","Nome":"PALESTRA LORINI CENTRO BENESSERE JING QI","Indirizzo":"VIA KRAMER ANTONIO   32","Zona":3,"info":"GINNASTICA","URL":null,"TELEFONO1":"0229529213"},"geometry":{"type":"Point","coordinates":[9.208616230836245,45.47185311470525]}},{"type":"Feature","properties":{"FAX":"025513785","Nome":"ISTITUTO EDMONDO DE AMICIS","Indirizzo":"VIA LAMARMORA ALFONSO   34","Zona":1,"info":"GINNASTICA","URL":null,"TELEFONO1":"0255195153"},"geometry":{"type":"Point","coordinates":[9.201645237692789,45.4568414838473]}},{"type":"Feature","properties":{"FAX":"0248009979","Nome":"ISTITUTO LEONE XIII","Indirizzo":"VIA LEONE XIII   12","Zona":8,"info":"GINNASTICA","URL":null,"TELEFONO1":"024385021"},"geometry":{"type":"Point","coordinates":[9.163192768603416,45.474263479222444]}},{"type":"Feature","properties":{"FAX":"0229536117","Nome":"MILANO SPORT SPA","Indirizzo":"VIA PICCINNI NICOLA   8","Zona":3,"info":"PISCINA","URL":"www.milanosport.it","TELEFONO1":"0229400393"},"geometry":{"type":"Point","coordinates":[9.215407954095465,45.482335922967565]}},{"type":"Feature","properties":{"FAX":"0243983187","Nome":"MILANO SPORT SPA","Indirizzo":"VIA MONTEVIDEO   11","Zona":6,"info":"PISCINA","URL":"www.miltanosport.it","TELEFONO1":"024695278"},"geometry":{"type":"Point","coordinates":[9.16548133861407,45.4568647222861]}},{"type":"Feature","properties":{"FAX":"0233202100","Nome":"CANTU'","Indirizzo":"VIA GRAF ARTURO   8","Zona":8,"info":"PISCINA","URL":"www.milanosport.it","TELEFONO1":"023559104"},"geometry":{"type":"Point","coordinates":[9.140141999072016,45.51257994880867]}},{"type":"Feature","properties":{"FAX":null,"Nome":"MILANO SPORTIVA A.S.D","Indirizzo":"VIA ISEO   10","Zona":9,"info":"NUOTO","URL":"www.csiseo.it","TELEFONO1":"0297384581"},"geometry":{"type":"Point","coordinates":[9.173132871435827,45.52084078472921]}},{"type":"Feature","properties":{"FAX":null,"Nome":"MILANO SPORTIVA A.S.D","Indirizzo":"VIA ISEO   4","Zona":9,"info":"TENNIS","URL":"www.csiseo.it","TELEFONO1":"0297384581"},"geometry":{"type":"Point","coordinates":[9.174324903451508,45.51994361644115]}},{"type":"Feature","properties":{"FAX":null,"Nome":"ANTONIO MASPES - VIGORELLI","Indirizzo":"VIA ARONA   19","Zona":8,"info":"CENTRO SPORTIVO","URL":"www.milanosport.it","TELEFONO1":"023311513"},"geometry":{"type":"Point","coordinates":[9.158258484050906,45.48215649004874]}},{"type":"Feature","properties":{"FAX":"0239210739","Nome":"LIDO DI MILANO","Indirizzo":"PLE LOTTO LORENZO   15","Zona":8,"info":"CENTRO SPORTIVO","URL":"www.milanosport.it","TELEFONO1":"0239266100"},"geometry":{"type":"Point","coordinates":[9.141940215210044,45.48056392523037]}},{"type":"Feature","properties":{"FAX":"0239210739","Nome":"PALALIDO","Indirizzo":"PZA STUPARICH CARLO   1","Zona":8,"info":"CENTRO SPORTIVO","URL":"www.milanosport.it","TELEFONO1":"0239266100"},"geometry":{"type":"Point","coordinates":[9.142829990550466,45.482470030598336]}},{"type":"Feature","properties":{"FAX":"0239262162","Nome":"XXV APRILE","Indirizzo":"VIA CIMABUE GIOVANNI   24","Zona":8,"info":"CENTRO SPORTIVO","URL":"www.milanosport.it","TELEFONO1":"0239262162"},"geometry":{"type":"Point","coordinates":[9.138502959568921,45.488744309923796]}},{"type":"Feature","properties":{"FAX":null,"Nome":"SAN GIOVANNI BATTISTA ALLA BICOCCA","Indirizzo":"VIA LA FARINA GIUSEPPE   15","Zona":9,"info":"CENTRO SPORTIVO","URL":null,"TELEFONO1":null},"geometry":{"type":"Point","coordinates":[9.207317898949931,45.51601297543542]}},{"type":"Feature","properties":{"FAX":null,"Nome":"SANTA GIUSTINA","Indirizzo":"VLE AFFORI   12","Zona":9,"info":"CENTRO SPORTIVO","URL":null,"TELEFONO1":null},"geometry":{"type":"Point","coordinates":[9.170292252572741,45.51712481550429]}},{"type":"Feature","properties":{"FAX":null,"Nome":"RESURREZIONE","Indirizzo":"VIA LESSONA MICHELE   70","Zona":8,"info":"CENTRO SPORTIVO","URL":null,"TELEFONO1":null},"geometry":{"type":"Point","coordinates":[9.13615682205108,45.52095327203404]}},{"type":"Feature","properties":{"FAX":null,"Nome":"CRISTO RE","Indirizzo":"VIA GALENO CLAUDIO   32","Zona":2,"info":"CENTRO SPORTIVO","URL":null,"TELEFONO1":null},"geometry":{"type":"Point","coordinates":[9.223891351531202,45.52004502717486]}},{"type":"Feature","properties":{"FAX":null,"Nome":"SAN BERNARDO IN COMASINA","Indirizzo":"PZA GASPARRI PIETRO   11","Zona":9,"info":"CENTRO SPORTIVO","URL":null,"TELEFONO1":null},"geometry":{"type":"Point","coordinates":[9.160673773903515,45.52639617930983]}},{"type":"Feature","properties":{"FAX":null,"Nome":"ORATORIO CENTRO GIOVANILE SAN LUIGI","Indirizzo":"VIA ACERBI ENRICO   12","Zona":9,"info":"PALLACANESTRO","URL":null,"TELEFONO1":null},"geometry":{"type":"Point","coordinates":[9.17696381969555,45.52838995270648]}},{"type":"Feature","properties":{"FAX":null,"Nome":"SAN BASILIO","Indirizzo":"VIA CAROLI LUIGI   12","Zona":2,"info":"CENTRO SPORTIVO","URL":null,"TELEFONO1":null},"geometry":{"type":"Point","coordinates":[9.238426158536214,45.508590596959834]}},{"type":"Feature","properties":{"FAX":null,"Nome":"A.C. CRESCENZAGO","Indirizzo":"VIA TRASIMENO   25","Zona":2,"info":"CENTRO SPORTIVO","URL":"www.ac-crescenzago.it","TELEFONO1":"027207408"},"geometry":{"type":"Point","coordinates":[9.249349075559625,45.513185533293]}},{"type":"Feature","properties":{"FAX":null,"Nome":"FIN FEDERAZIONE ITALIANA NUOTO SAMUELE","Indirizzo":"VIA TRANI   1","Zona":4,"info":"PISCINA","URL":null,"TELEFONO1":"025061347"},"geometry":{"type":"Point","coordinates":[9.245064256823477,45.453794406903796]}},{"type":"Feature","properties":{"FAX":"02502918","Nome":"A.C. MACALLESI 1927","Indirizzo":"VLE UNGHERIA   5","Zona":4,"info":"CENTRO SPORTIVO","URL":"www.macallesi.it","TELEFONO1":"025061901"},"geometry":{"type":"Point","coordinates":[9.244299438276604,45.44588380857024]}},{"type":"Feature","properties":{"FAX":null,"Nome":"ASSOCIAZIONE  TENNIS PORTA ROMANA","Indirizzo":"LGO PARENTI FRANCO   2","Zona":4,"info":"FITNESS MACCHINE","URL":null,"TELEFONO1":"025460946"},"geometry":{"type":"Point","coordinates":[9.205834582513338,45.45353232640698]}},{"type":"Feature","properties":{"FAX":null,"Nome":"C.S. FATIMA","Indirizzo":"VIA CHOPIN FEDERICO   81","Zona":5,"info":"CENTRO SPORTIVO","URL":null,"TELEFONO1":"025693053"},"geometry":{"type":"Point","coordinates":[9.208086030260294,45.42511777799969]}},{"type":"Feature","properties":{"FAX":null,"Nome":"A.S. LOMBARDIA UNO POLISPORTIVA","Indirizzo":"VIA DE NICOLA ENRICO   3","Zona":6,"info":"CENTRO SPORTIVO","URL":null,"TELEFONO1":"028135386"},"geometry":{"type":"Point","coordinates":[9.15648433840153,45.431355417116485]}},{"type":"Feature","properties":{"FAX":null,"Nome":"ASSOCIAZIONE SPORTIVA 70A DANCE & FITNESS","Indirizzo":"VLE ABRUZZI   70  A","Zona":3,"info":"FITNESS MACCHINE","URL":null,"TELEFONO1":"0229406119"},"geometry":{"type":"Point","coordinates":[9.217287375656865,45.48256881599871]}},{"type":"Feature","properties":{"FAX":null,"Nome":"ACQUAMICA SRL","Indirizzo":"VIA DI TOCQUEVILLE ALESSIO   7","Zona":9,"info":"FITNESS MACCHINE","URL":null,"TELEFONO1":"026554677"},"geometry":{"type":"Point","coordinates":[9.186107462055077,45.48284426819232]}},{"type":"Feature","properties":{"FAX":null,"Nome":"ALTAGUARDIA 6 SRL PALESTRA CENTRO ESTETICO","Indirizzo":"VIA ALTAGUARDIA   6","Zona":5,"info":"FITNESS MACCHINE","URL":null,"TELEFONO1":"0258302528"},"geometry":{"type":"Point","coordinates":[9.199451569687028,45.45028399397801]}},{"type":"Feature","properties":{"FAX":null,"Nome":"A.S. CRISTAL CLUB","Indirizzo":"VIA AMPERE ANDREA MARIA   122","Zona":3,"info":"FITNESS MACCHINE","URL":null,"TELEFONO1":"0226111950"},"geometry":{"type":"Point","coordinates":[9.226554129230394,45.48804142570812]}},{"type":"Feature","properties":{"FAX":"0233611488","Nome":"FIGURELLA MILANO SEMPIONE","Indirizzo":"VIA LONDONIO FRANCESCO   20","Zona":8,"info":"GINNASTICA","URL":null,"TELEFONO1":"0233611486"},"geometry":{"type":"Point","coordinates":[9.169203961654224,45.480247581915464]}},{"type":"Feature","properties":{"FAX":null,"Nome":"ACCADUEO' & AREATERRA","Indirizzo":"VLE LUCANIA   27","Zona":4,"info":"GINNASTICA","URL":null,"TELEFONO1":"0255230786"},"geometry":{"type":"Point","coordinates":[9.223826133204293,45.443204232110865]}},{"type":"Feature","properties":{"FAX":null,"Nome":"AIKIDO PALESTRA","Indirizzo":"VIA LULLI GIOVANNI   30","Zona":3,"info":"GINNASTICA","URL":null,"TELEFONO1":"022896939"},"geometry":{"type":"Point","coordinates":[9.22123850703425,45.486960207461784]}},{"type":"Feature","properties":{"FAX":"028460880","Nome":"ECOLIFE EVOLUZIONE SALUTE E AMBIENTE SRL","Indirizzo":"PZA AGRIPPA MARCO   12","Zona":5,"info":"GINNASTICA","URL":null,"TELEFONO1":"028460880"},"geometry":{"type":"Point","coordinates":[9.18352628634386,45.432657192081585]}},{"type":"Feature","properties":{"FAX":null,"Nome":"FISIO DYNAMIC SA DI R. CAPUANA","Indirizzo":"VIA MAIOCCHI ACHILLE   8","Zona":3,"info":"GINNASTICA","URL":null,"TELEFONO1":"02201359"},"geometry":{"type":"Point","coordinates":[9.21252597301304,45.47494023151678]}},{"type":"Feature","properties":{"FAX":"0289054669","Nome":"ACCADEMIA EUROPEA","Indirizzo":"VIA MELZO   9","Zona":3,"info":"GINNASTICA","URL":null,"TELEFONO1":"0229409080"},"geometry":{"type":"Point","coordinates":[9.20942743312246,45.47333178572697]}},{"type":"Feature","properties":{"FAX":"0267078197","Nome":"MILANO SPORT SPA","Indirizzo":"VIA DE MARCHI EMILIO   17","Zona":2,"info":"PISCINA","URL":"www.milanosport.it","TELEFONO1":"026706063"},"geometry":{"type":"Point","coordinates":[9.208329879907533,45.49882811688115]}},{"type":"Feature","properties":{"FAX":"022593610","Nome":"OPEN DANCE CENTER SRL","Indirizzo":"VIA MEUCCI ANTONIO   73","Zona":2,"info":"GINNASTICA","URL":null,"TELEFONO1":"0227201180"},"geometry":{"type":"Point","coordinates":[9.238498288707675,45.50772107147629]}},{"type":"Feature","properties":{"FAX":"0227001350","Nome":"FIGURELLA MILANO PRECOTTO","Indirizzo":"VLE MONZA   261","Zona":2,"info":"GINNASTICA","URL":null,"TELEFONO1":"0227003253"},"geometry":{"type":"Point","coordinates":[9.223414647275316,45.5118863718302]}},{"type":"Feature","properties":{"FAX":null,"Nome":"ISTITUTO SALESIANO DON BOSCO","Indirizzo":"VIA TONALE   19","Zona":2,"info":"CENTRO SPORTIVO","URL":null,"TELEFONO1":null},"geometry":{"type":"Point","coordinates":[9.201374961551362,45.48933585371239]}},{"type":"Feature","properties":{"FAX":null,"Nome":"SANTA MARIA BELTRADE","Indirizzo":"VIA OXILIA NINO   8","Zona":2,"info":"CENTRO SPORTIVO","URL":null,"TELEFONO1":null},"geometry":{"type":"Point","coordinates":[9.215377835848315,45.49260399870517]}},{"type":"Feature","properties":{"FAX":null,"Nome":"SAN GABRIELE IN MATER DEI","Indirizzo":"VIA TERMOPILI   5","Zona":2,"info":"CENTRO SPORTIVO","URL":null,"TELEFONO1":null},"geometry":{"type":"Point","coordinates":[9.21998287909914,45.491238195028856]}},{"type":"Feature","properties":{"FAX":null,"Nome":"SAN DOMENICO SAVIO","Indirizzo":"VIA ROVIGNO   19","Zona":2,"info":"CENTRO SPORTIVO","URL":null,"TELEFONO1":null},"geometry":{"type":"Point","coordinates":[9.219524082810523,45.502406644619946]}},{"type":"Feature","properties":{"FAX":null,"Nome":"SAN GIUSEPPE DEI MORENTI","Indirizzo":"VIA CELENTANO BERNARDO   14","Zona":2,"info":"CENTRO SPORTIVO","URL":null,"TELEFONO1":null},"geometry":{"type":"Point","coordinates":[9.240439402611104,45.501277604419094]}},{"type":"Feature","properties":{"FAX":null,"Nome":"ISTITUTO SAN GIUSEPPE","Indirizzo":"VIA DE LA SALLE SAN GIOVANNI BATTISTA   5","Zona":2,"info":"CENTRO SPORTIVO","URL":null,"TELEFONO1":null},"geometry":{"type":"Point","coordinates":[9.241587589938899,45.50252090960342]}},{"type":"Feature","properties":{"FAX":null,"Nome":"SAN LEONE MAGNO","Indirizzo":"VIA CARNIA   14","Zona":3,"info":"CENTRO SPORTIVO","URL":null,"TELEFONO1":null},"geometry":{"type":"Point","coordinates":[9.236704493527228,45.492637476585735]}},{"type":"Feature","properties":{"FAX":null,"Nome":"ORATORIO GIOVANNI XXIII","Indirizzo":"VIA PITTERI RICCARDO   54","Zona":3,"info":"CENTRO SPORTIVO","URL":null,"TELEFONO1":null},"geometry":{"type":"Point","coordinates":[9.248244479823786,45.474705989937604]}},{"type":"Feature","properties":{"FAX":null,"Nome":"A.S. ALEX CLUB A-B-C-","Indirizzo":"VIA MOTTARONE   2","Zona":8,"info":"FITNESS MACCHINE","URL":null,"TELEFONO1":"0233002432"},"geometry":{"type":"Point","coordinates":[9.15684064522016,45.494100263896485]}},{"type":"Feature","properties":{"FAX":"02714013","Nome":"NEW FITNESS CLUB","Indirizzo":"VIA NULLO FRANCESCO   14","Zona":3,"info":"GINNASTICA","URL":null,"TELEFONO1":"02714013"},"geometry":{"type":"Point","coordinates":[9.218430715239595,45.46906233246791]}},{"type":"Feature","properties":{"FAX":"0286454496","Nome":"HISO SRL CENTRO TERAPIA FISICA RIABILITATIVA","Indirizzo":"VIA OLMETTO   5","Zona":1,"info":"GINNASTICA","URL":null,"TELEFONO1":"0286454561"},"geometry":{"type":"Point","coordinates":[9.185617521567268,45.459817029193474]}},{"type":"Feature","properties":{"FAX":"0226680685","Nome":"CENTRO POLISPECIALISTICO PACINI SRL","Indirizzo":"VIA PACINI GIOVANNI   15","Zona":3,"info":"GINNASTICA","URL":null,"TELEFONO1":"022361230"},"geometry":{"type":"Point","coordinates":[9.22619317391308,45.481359156419735]}},{"type":"Feature","properties":{"FAX":null,"Nome":"FISIC CENTER ASSOCIAZIONE SPORTIVA DILETTANTISTICA","Indirizzo":"VIA PANTIGLIATE   4","Zona":6,"info":"GINNASTICA","URL":null,"TELEFONO1":"024158582"},"geometry":{"type":"Point","coordinates":[9.131559448927238,45.45954686806911]}},{"type":"Feature","properties":{"FAX":"0258103140","Nome":"FIGURELLA MILANO SOLARI","Indirizzo":"VLE PAPINIANO   45","Zona":1,"info":"FITNESS MACCHINE","URL":null,"TELEFONO1":"0258103160"},"geometry":{"type":"Point","coordinates":[9.170552667857855,45.45786632058554]}},{"type":"Feature","properties":{"FAX":null,"Nome":"ENZO MONTANARI SHOTOKAN KARATE STUDIO SAS","Indirizzo":"VIA PETRARCA FRANCESCO   8","Zona":1,"info":"FITNESS MACCHINE","URL":null,"TELEFONO1":"024982764"},"geometry":{"type":"Point","coordinates":[9.169205899030391,45.471356873061026]}},{"type":"Feature","properties":{"FAX":"0226147471","Nome":"AIKIDO DI FUJIMOTO YOJI","Indirizzo":"VIA PIRANDELLO LUIGI   4","Zona":7,"info":"GINNASTICA","URL":null,"TELEFONO1":"022896939"},"geometry":{"type":"Point","coordinates":[9.156474623742474,45.46333757138966]}},{"type":"Feature","properties":{"FAX":"0248017658","Nome":"ICOS ASSOCIAZIONE SPORTIVA DILETTANTISTICA","Indirizzo":"VIA PIRANDELLO LUIGI   4","Zona":7,"info":"GINNASTICA","URL":null,"TELEFONO1":"02462551 _ 02462851"},"geometry":{"type":"Point","coordinates":[9.156474623742474,45.46333757138966]}},{"type":"Feature","properties":{"FAX":null,"Nome":"SPORTING LIFE STUDIO ALLEGRA SRL","Indirizzo":"VIA PRINA GIUSEPPE   15","Zona":8,"info":"GINNASTICA","URL":null,"TELEFONO1":"0233105530"},"geometry":{"type":"Point","coordinates":[9.168315904113925,45.47981417013079]}},{"type":"Feature","properties":{"FAX":"0234535169","Nome":"GREENLINE WELLNESS CENTER SRL","Indirizzo":"VIA PROCACCINI GIULIO CESARE   36","Zona":8,"info":"GINNASTICA","URL":null,"TELEFONO1":"0293501170"},"geometry":{"type":"Point","coordinates":[9.169720615188654,45.48322531818578]}},{"type":"Feature","properties":{"FAX":"0258314402","Nome":"FIGURELLA MILANO PORTA ROMANA","Indirizzo":"VIA QUADRONNO   34","Zona":1,"info":"GINNASTICA","URL":null,"TELEFONO1":"0258314343"},"geometry":{"type":"Point","coordinates":[9.195638325966122,45.454284870711724]}},{"type":"Feature","properties":{"FAX":null,"Nome":"ASSOCIAZIONE SPORTIVA DILETTANTISTICA FI.T.LU.","Indirizzo":"VLE RANZONI DANIELE   21","Zona":7,"info":"GINNASTICA","URL":null,"TELEFONO1":"0248700180"},"geometry":{"type":"Point","coordinates":[9.145112468531407,45.46896190067166]}},{"type":"Feature","properties":{"FAX":null,"Nome":"U.S. TRIESTINA 1946","Indirizzo":"VIA FLEMING ALESSANDRO   13","Zona":7,"info":"CALCIO A 11","URL":null,"TELEFONO1":"0240090479"},"geometry":{"type":"Point","coordinates":[9.120003537712831,45.46845433353943]}},{"type":"Feature","properties":{"FAX":null,"Nome":"U.S. QUINTO ROMANO","Indirizzo":"VIA DE SICA VITTORIO   14","Zona":7,"info":"CALCIO A 11","URL":"www.usquintoromano.it","TELEFONO1":"0248202858"},"geometry":{"type":"Point","coordinates":[9.08424257409456,45.47702265745583]}},{"type":"Feature","properties":{"FAX":null,"Nome":"PARROCCHIA  S.S. NABORE E FELICE","Indirizzo":"PLE PERRUCCHETTI GIUSEPPE   2","Zona":7,"info":"CALCIO A 7","URL":null,"TELEFONO1":"0248701531"},"geometry":{"type":"Point","coordinates":[9.127974472284706,45.46501394059705]}},{"type":"Feature","properties":{"FAX":null,"Nome":"POLISPORTIVA AICS FIGINO","Indirizzo":"VIA MOLINETTO   64","Zona":7,"info":"CENTRO SPORTIVO","URL":null,"TELEFONO1":null},"geometry":{"type":"Point","coordinates":[9.069392396414795,45.49216070820408]}},{"type":"Feature","properties":{"FAX":null,"Nome":"U.S. GESCAL BOYS","Indirizzo":"VIA OLIVIERI ALESSIO   9","Zona":7,"info":"CALCIO A 5","URL":null,"TELEFONO1":"024564671"},"geometry":{"type":"Point","coordinates":[9.11352299682808,45.46417097221863]}},{"type":"Feature","properties":{"FAX":null,"Nome":"S.S. ALCIONE CALCIO","Indirizzo":"VIA OLIVIERI ALESSIO   13","Zona":7,"info":"CENTRO SPORTIVO","URL":"www.ssalcione.com","TELEFONO1":"024531615"},"geometry":{"type":"Point","coordinates":[9.111425202355326,45.46560388799085]}},{"type":"Feature","properties":{"FAX":null,"Nome":"CIRCOLO  ARCI OLMI","Indirizzo":"VIA DEGLI ULIVI   2","Zona":7,"info":"CENTRO SPORTIVO","URL":null,"TELEFONO1":"0248911144"},"geometry":{"type":"Point","coordinates":[9.084331888157696,45.45424740999377]}},{"type":"Feature","properties":{"FAX":null,"Nome":"POLISPORTIVA VALSESIA","Indirizzo":"VIA VALSESIA   20 8","Zona":7,"info":"CALCIO A 7","URL":null,"TELEFONO1":null},"geometry":{"type":"Point","coordinates":[9.098863108637099,45.45505026810974]}},{"type":"Feature","properties":{"FAX":null,"Nome":"SELLA NUOVA S.R.L.","Indirizzo":"VIA VITERBO   4","Zona":7,"info":"CENTRO SPORTIVO","URL":null,"TELEFONO1":null},"geometry":{"type":"Point","coordinates":[9.112757464682858,45.45723540112118]}},{"type":"Feature","properties":{"FAX":"0234531118","Nome":"CENTRO SPORTIVO GIOVANNI DA PROCIDA","Indirizzo":"VIA GIOVANNI DA PROCIDA   20","Zona":8,"info":"CENTRO SPORTIVO","URL":"www.milanosport.it","TELEFONO1":"0233104970"},"geometry":{"type":"Point","coordinates":[9.160049287895289,45.48152971821042]}},{"type":"Feature","properties":{"FAX":"0270638558","Nome":"GIANFRANCO CRESPI","Indirizzo":"VIA VALVASSORI PERONI CARLO   48","Zona":3,"info":"CENTRO SPORTIVO","URL":"www.milanosport.it","TELEFONO1":"022361066"},"geometry":{"type":"Point","coordinates":[9.236821513056972,45.47774604152463]}},{"type":"Feature","properties":{"FAX":null,"Nome":"SOCIETA' GINNASTICA MILANESE FORZA E CORAGGIO","Indirizzo":"VIA GALLURA   8","Zona":5,"info":"CENTRO SPORTIVO","URL":"www.forzaecoraggio.com","TELEFONO1":"0257300130"},"geometry":{"type":"Point","coordinates":[9.199191189677606,45.43758572335121]}},{"type":"Feature","properties":{"FAX":null,"Nome":"FOSSATI PALESTRA GIORDANI","Indirizzo":"VIA CAMBINI LEONARDO   4","Zona":2,"info":"GINNASTICA ATTREZZISTICA","URL":"www.milanosport.it","TELEFONO1":"022820544"},"geometry":{"type":"Point","coordinates":[9.231519892133925,45.49451514176242]}},{"type":"Feature","properties":{"FAX":null,"Nome":"GREPPI DAJELLI","Indirizzo":"VLE FAENZA   7","Zona":6,"info":"CENTRO SPORTIVO","URL":null,"TELEFONO1":"02810202"},"geometry":{"type":"Point","coordinates":[9.151722294927687,45.43670101952786]}},{"type":"Feature","properties":{"FAX":null,"Nome":"VITTORIO POZZO","Indirizzo":"VIA POZZOBONELLI GIUSEPPE   4","Zona":9,"info":"CENTRO SPORTIVO","URL":null,"TELEFONO1":"026433866"},"geometry":{"type":"Point","coordinates":[9.193584783126813,45.521592087725125]}},{"type":"Feature","properties":{"FAX":null,"Nome":"SAN DOMENICO SAVIO","Indirizzo":"VIA CUFRA   3","Zona":9,"info":"CENTRO SPORTIVO","URL":null,"TELEFONO1":null},"geometry":{"type":"Point","coordinates":[9.194451193113593,45.5017026734436]}},{"type":"Feature","properties":{"FAX":null,"Nome":"SAN MATERNO","Indirizzo":"VIA F.LLI ZANZOTTERA   19","Zona":7,"info":"CENTRO SPORTIVO","URL":null,"TELEFONO1":null},"geometry":{"type":"Point","coordinates":[9.073021728277428,45.49249683021631]}},{"type":"Feature","properties":{"FAX":"0248915475","Nome":"SANT'ANSELMO DA BAGGIO V.","Indirizzo":"VIA MANARESI CESARE   13","Zona":7,"info":"CENTRO SPORTIVO","URL":"www.santanselmodabaggio.it","TELEFONO1":"0248915475"},"geometry":{"type":"Point","coordinates":[9.088419537744366,45.465834262771516]}},{"type":"Feature","properties":{"FAX":null,"Nome":"SAN GIOVANNI BOSCO","Indirizzo":"VIA MAR NERO   10","Zona":7,"info":"CENTRO SPORTIVO","URL":null,"TELEFONO1":null},"geometry":{"type":"Point","coordinates":[9.103416649831363,45.457207326162965]}},{"type":"Feature","properties":{"FAX":null,"Nome":"SANTI PATRONI D'ITALIA","Indirizzo":"VIA ARZAGA   23","Zona":6,"info":"CENTRO SPORTIVO","URL":"www.santipatroni.it","TELEFONO1":null},"geometry":{"type":"Point","coordinates":[9.133294905982407,45.45541804955822]}},{"type":"Feature","properties":{"FAX":null,"Nome":"SAN BABILA SPORTCLUB","Indirizzo":"CSO VENEZIA   2  A","Zona":1,"info":"GINNASTICA","URL":null,"TELEFONO1":"0276394297"},"geometry":{"type":"Point","coordinates":[9.198126801394745,45.46707196831933]}},{"type":"Feature","properties":{"FAX":null,"Nome":"A.S. FREE TIME CENTER","Indirizzo":"VIA VERRO BERNARDINO   62","Zona":5,"info":"GINNASTICA","URL":null,"TELEFONO1":"0289531105"},"geometry":{"type":"Point","coordinates":[9.194085342908565,45.43686663588705]}},{"type":"Feature","properties":{"FAX":null,"Nome":"VICO CLUB","Indirizzo":"VIA VICO GIAN BATTISTA   38","Zona":1,"info":"GINNASTICA","URL":null,"TELEFONO1":"0234934302"},"geometry":{"type":"Point","coordinates":[9.167389493011253,45.462437320481044]}},{"type":"Feature","properties":{"FAX":"027383118","Nome":"A.S.D. GYNNIC CLUB","Indirizzo":"VIA ZANELLA GIACOMO   60","Zona":4,"info":"GINNASTICA","URL":null,"TELEFONO1":"027383118"},"geometry":{"type":"Point","coordinates":[9.231416189898662,45.46411915720564]}},{"type":"Feature","properties":{"FAX":null,"Nome":"FOSSATI PALESTRA GIORDANI","Indirizzo":"VIA CAMBINI LEONARDO   4","Zona":2,"info":"TENNIS","URL":"www.milanosport.it","TELEFONO1":"022820544"},"geometry":{"type":"Point","coordinates":[9.231519892133925,45.49451514176242]}},{"type":"Feature","properties":{"FAX":"0262345198","Nome":"ROBERTO COZZI","Indirizzo":"VLE TUNISIA   35","Zona":2,"info":"PISCINA","URL":"www.milanosport.it","TELEFONO1":"026599703"},"geometry":{"type":"Point","coordinates":[9.201282289864418,45.47903984585865]}},{"type":"Feature","properties":{"FAX":null,"Nome":"ACCADEMIA DELLE ARTI MARZIALI","Indirizzo":"VIA ARIBERTO DA INTIMIANO   3","Zona":1,"info":"FITNESS MACCHINE","URL":null,"TELEFONO1":"0289404524"},"geometry":{"type":"Point","coordinates":[9.174894527220182,45.45753836808826]}},{"type":"Feature","properties":{"FAX":"024045694","Nome":"CASA DEI BAMBINI MONTESSORI","Indirizzo":"VIA AROSIO   3","Zona":7,"info":"FITNESS MACCHINE","URL":null,"TELEFONO1":"024045694_024043493"},"geometry":{"type":"Point","coordinates":[9.125304326510435,45.47361026040526]}},{"type":"Feature","properties":{"FAX":"026460485","Nome":"HOCKEY CLUB MILANO 24 SRL","Indirizzo":"VIA ASSIETTA   19","Zona":9,"info":"FITNESS MACCHINE","URL":"www.hcm24.it","TELEFONO1":"026621611"},"geometry":{"type":"Point","coordinates":[9.16339824312828,45.51808791089866]}},{"type":"Feature","properties":{"FAX":"022871566","Nome":"PALESTRA LEONARDO","Indirizzo":"VIA BATTAGLIA NATALE   6","Zona":2,"info":"GINNASTICA","URL":null,"TELEFONO1":"022892869"},"geometry":{"type":"Point","coordinates":[9.216130432683736,45.4881495597906]}},{"type":"Feature","properties":{"FAX":null,"Nome":"ASSOCIAZIONE SPORTIVA CLUB 43","Indirizzo":"VIA BORDIGHERA   43","Zona":5,"info":"GINNASTICA","URL":null,"TELEFONO1":"0289512737"},"geometry":{"type":"Point","coordinates":[9.173775941651927,45.43895015379926]}},{"type":"Feature","properties":{"FAX":"02878780","Nome":"SANTOMASOSEI LA PALESTRA","Indirizzo":"VIA BROLETTO   28","Zona":1,"info":"GINNASTICA","URL":null,"TELEFONO1":"02878780_ 02876902"},"geometry":{"type":"Point","coordinates":[9.185794723124475,45.46753075385034]}},{"type":"Feature","properties":{"FAX":null,"Nome":"PALESTRA MOVE AP","Indirizzo":"VIA BULLONA   12","Zona":8,"info":"GINNASTICA","URL":null,"TELEFONO1":"0234592536"},"geometry":{"type":"Point","coordinates":[9.161801898313945,45.486408464879545]}},{"type":"Feature","properties":{"FAX":"0287381261","Nome":"PILATES CESARE DA SESTO 24","Indirizzo":"VIA CESARE DA SESTO   24","Zona":1,"info":"GINNASTICA","URL":null,"TELEFONO1":"0287381261"},"geometry":{"type":"Point","coordinates":[9.171295793371412,45.45876104749393]}},{"type":"Feature","properties":{"FAX":null,"Nome":"QUICK & SLOW - CENTRO DANZA","Indirizzo":"VIA CAPECELATRO ALFONSO   22","Zona":7,"info":"GINNASTICA","URL":null,"TELEFONO1":"0240070046"},"geometry":{"type":"Point","coordinates":[9.132229087158676,45.469564000140295]}},{"type":"Feature","properties":{"FAX":null,"Nome":"VICO CENISIO","Indirizzo":"VIA CENISIO   10  A","Zona":8,"info":"FITNESS MACCHINE","URL":null,"TELEFONO1":"0234934302"},"geometry":{"type":"Point","coordinates":[9.170391767628802,45.48768468010376]}},{"type":"Feature","properties":{"FAX":"024980506","Nome":"PALESTRA SPORTIME SIMONETTA MORO","Indirizzo":"VIA CIMAROSA DOMENICO   7","Zona":7,"info":"GINNASTICA","URL":null,"TELEFONO1":"024818028"},"geometry":{"type":"Point","coordinates":[9.159181857581881,45.4656501167762]}},{"type":"Feature","properties":{"FAX":"026599765","Nome":"CLUB FRANCESCO CONTI","Indirizzo":"CSO COMO   15","Zona":9,"info":"GINNASTICA","URL":null,"TELEFONO1":"026570294"},"geometry":{"type":"Point","coordinates":[9.187212554688777,45.482620537122656]}},{"type":"Feature","properties":{"FAX":null,"Nome":"HARMONIEDUCORPS STUDIO","Indirizzo":"VLE CONI ZUGNA   8","Zona":7,"info":"GINNASTICA","URL":null,"TELEFONO1":"0248198496"},"geometry":{"type":"Point","coordinates":[9.164733834023963,45.46005647726995]}},{"type":"Feature","properties":{"FAX":null,"Nome":"DYNAMIKA PALESTRA","Indirizzo":"VIA CUCCHIARI DOMENICO   4","Zona":8,"info":"GINNASTICA","URL":null,"TELEFONO1":"02317504"},"geometry":{"type":"Point","coordinates":[9.164650372681203,45.48814663383293]}},{"type":"Feature","properties":{"FAX":null,"Nome":"ARMONIA PENSIERO IN MOVIMENTO","Indirizzo":"VIA CUSANI   1","Zona":1,"info":"GINNASTICA","URL":null,"TELEFONO1":"0286462927"},"geometry":{"type":"Point","coordinates":[9.184975193780765,45.46867406746935]}},{"type":"Feature","properties":{"FAX":"024694574","Nome":"FIGURELLA MILANO FRUA","Indirizzo":"PZA DE ANGELI ERNESTO   7","Zona":7,"info":"GINNASTICA","URL":null,"TELEFONO1":"024694061"},"geometry":{"type":"Point","coordinates":[9.149021700538958,45.4662289047891]}},{"type":"Feature","properties":{"FAX":null,"Nome":"CORPO Y LAMA","Indirizzo":"VIA EUSTACHI BARTOLOMEO   22","Zona":3,"info":"GINNASTICA","URL":null,"TELEFONO1":"0289057116"},"geometry":{"type":"Point","coordinates":[9.215195768825827,45.475825773353506]}},{"type":"Feature","properties":{"FAX":"0289057116","Nome":"ACTIVITY SRL","Indirizzo":"VIA EUSTACHI BARTOLOMEO   22","Zona":3,"info":"GINNASTICA","URL":null,"TELEFONO1":"0289057116"},"geometry":{"type":"Point","coordinates":[9.215195768825827,45.475825773353506]}},{"type":"Feature","properties":{"FAX":null,"Nome":"ANDREW'S QUARE","Indirizzo":"VIA FRIULI   50","Zona":4,"info":"GINNASTICA","URL":null,"TELEFONO1":"0255196033"},"geometry":{"type":"Point","coordinates":[9.213824076592529,45.45472744012152]}},{"type":"Feature","properties":{"FAX":"0254121130","Nome":"PLUS 1 GYM CONCEPT","Indirizzo":"VIA FRIULI   8","Zona":4,"info":"GINNASTICA","URL":null,"TELEFONO1":"0254121130"},"geometry":{"type":"Point","coordinates":[9.209184710419564,45.44904832118479]}},{"type":"Feature","properties":{"FAX":null,"Nome":"A.S. NEW GYMNIKA","Indirizzo":"VIA RUCELLAI BERNARDO   20","Zona":2,"info":"GINNASTICA","URL":null,"TELEFONO1":"022579400"},"geometry":{"type":"Point","coordinates":[9.220716590602608,45.51225003567218]}},{"type":"Feature","properties":{"FAX":null,"Nome":"FIGURELLA MILANO SAN BABILA","Indirizzo":"PZA SAN BABILA   5","Zona":1,"info":"GINNASTICA","URL":null,"TELEFONO1":"0276002567"},"geometry":{"type":"Point","coordinates":[9.197524229793759,45.467041479549394]}},{"type":"Feature","properties":{"FAX":"0258301519","Nome":"OLISTICA SALUS","Indirizzo":"VIA SAN MARTINO   14","Zona":1,"info":"GINNASTICA","URL":null,"TELEFONO1":"0258300910"},"geometry":{"type":"Point","coordinates":[9.189423999008234,45.453089475589074]}},{"type":"Feature","properties":{"FAX":"0272003980","Nome":"FIGURELLA MILANO","Indirizzo":"VIA SAN PROSPERO   4","Zona":1,"info":"GINNASTICA","URL":null,"TELEFONO1":"0272003960"},"geometry":{"type":"Point","coordinates":[9.185717097694559,45.46608982577564]}},{"type":"Feature","properties":{"FAX":null,"Nome":"BICOCCA VILLAGE","Indirizzo":"VLE SARCA   336","Zona":9,"info":"GINNASTICA","URL":null,"TELEFONO1":"0266101276"},"geometry":{"type":"Point","coordinates":[9.214196067879206,45.524949232055754]}},{"type":"Feature","properties":{"FAX":"0287389823","Nome":"HUMANKINESIS RIABILITAZIONE INTEGRATA","Indirizzo":"VLE SARCA   336","Zona":9,"info":"GINNASTICA","URL":null,"TELEFONO1":"0287389820"},"geometry":{"type":"Point","coordinates":[9.214196067879206,45.524949232055754]}},{"type":"Feature","properties":{"FAX":null,"Nome":"ASSOCIAZIONE HARA YOGA ASS","Indirizzo":"VIA SAVONA   10","Zona":6,"info":"GINNASTICA","URL":null,"TELEFONO1":"0289422500"},"geometry":{"type":"Point","coordinates":[9.168568219678303,45.4556034841147]}},{"type":"Feature","properties":{"FAX":"02782087","Nome":"ANGELO CAROLI","Indirizzo":"VIA SENATO   11","Zona":1,"info":"GINNASTICA","URL":null,"TELEFONO1":"0276028517"},"geometry":{"type":"Point","coordinates":[9.197868956104207,45.469918571780674]}},{"type":"Feature","properties":{"FAX":null,"Nome":"CENTRI SHIATSU SHIN WA","Indirizzo":"VIA SETTEMBRINI LUIGI   52","Zona":3,"info":"GINNASTICA","URL":null,"TELEFONO1":"0229404540"},"geometry":{"type":"Point","coordinates":[9.20854745146242,45.48405272005359]}},{"type":"Feature","properties":{"FAX":null,"Nome":"WELLNESS","Indirizzo":"VIA TAGLIAMENTO   19","Zona":4,"info":"GINNASTICA","URL":null,"TELEFONO1":"025691181"},"geometry":{"type":"Point","coordinates":[9.213527317330474,45.44353614683289]}},{"type":"Feature","properties":{"FAX":"0236514463","Nome":"IL VASO DI PANDORA","Indirizzo":"VIA TARTINI GIUSEPPE   38","Zona":9,"info":"GINNASTICA","URL":null,"TELEFONO1":"0236514463"},"geometry":{"type":"Point","coordinates":[9.17457423319951,45.506604492837376]}},{"type":"Feature","properties":{"FAX":null,"Nome":"PALESTRA FIT HARMONY","Indirizzo":"VIA CINQUE MAGGIO   11","Zona":8,"info":"GINNASTICA","URL":null,"TELEFONO1":"0297377525"},"geometry":{"type":"Point","coordinates":[9.132636652320432,45.50974853975983]}},{"type":"Feature","properties":{"FAX":"02876452","Nome":"PALESTRA VERTICAL FIT","Indirizzo":"VIA MERAVIGLI   12","Zona":1,"info":"GINNASTICA","URL":null,"TELEFONO1":"02876452"},"geometry":{"type":"Point","coordinates":[9.182809528097568,45.46584120980994]}},{"type":"Feature","properties":{"FAX":null,"Nome":"IMMACOLATA CONCEZIONE","Indirizzo":"PZA FRATTINI PIETRO   1","Zona":6,"info":"CENTRO SPORTIVO","URL":null,"TELEFONO1":null},"geometry":{"type":"Point","coordinates":[9.143407129629074,45.451902005874494]}},{"type":"Feature","properties":{"FAX":null,"Nome":"SAN GIUSEPPE CALASANZIO","Indirizzo":"VIA GNOCCHI DON CARLO   16","Zona":7,"info":"CENTRO SPORTIVO","URL":null,"TELEFONO1":null},"geometry":{"type":"Point","coordinates":[9.124687175506677,45.47226377996722]}},{"type":"Feature","properties":{"FAX":null,"Nome":"CONVENTO DEI CAPUCCINI","Indirizzo":"PLE VELASQUEZ DIEGO   1","Zona":7,"info":"CENTRO SPORTIVO","URL":null,"TELEFONO1":null},"geometry":{"type":"Point","coordinates":[9.141049484995195,45.467228008651965]}},{"type":"Feature","properties":{"FAX":null,"Nome":"SANTI MARTIRI ANAUNIESI","Indirizzo":"VIA BETTI UGO   62","Zona":8,"info":"CENTRO SPORTIVO","URL":null,"TELEFONO1":null},"geometry":{"type":"Point","coordinates":[9.109344461529338,45.494661921432794]}},{"type":"Feature","properties":{"FAX":null,"Nome":"SAN LEONARDO DA PORTO MAURIZIO","Indirizzo":"VIA BORSA MARIO   50","Zona":8,"info":"CENTRO SPORTIVO","URL":null,"TELEFONO1":null},"geometry":{"type":"Point","coordinates":[9.097101231510859,45.504250175337404]}},{"type":"Feature","properties":{"FAX":null,"Nome":"MARIA ASSUNTA IN CERTOSA","Indirizzo":"VIA PARETO VILFREDO   2","Zona":8,"info":"CENTRO SPORTIVO","URL":null,"TELEFONO1":null},"geometry":{"type":"Point","coordinates":[9.128348737689556,45.502550356395695]}},{"type":"Feature","properties":{"FAX":null,"Nome":"SANTI MM. NAZARO E CELSO","Indirizzo":"VIA ALDINI ANTONIO   33","Zona":8,"info":"CENTRO SPORTIVO","URL":"www.nazaroecelso.it","TELEFONO1":null},"geometry":{"type":"Point","coordinates":[9.135353726229107,45.51244519500127]}},{"type":"Feature","properties":{"FAX":null,"Nome":"SAN GAETANO","Indirizzo":"VIA MAC MAHON   92","Zona":8,"info":"CENTRO SPORTIVO","URL":null,"TELEFONO1":null},"geometry":{"type":"Point","coordinates":[9.158291903498723,45.4938445468244]}},{"type":"Feature","properties":{"FAX":null,"Nome":"A.S.D. RUGBY MILANO","Indirizzo":"VIA LICATA   41","Zona":3,"info":"CALCIO A 11","URL":null,"TELEFONO1":null},"geometry":{"type":"Point","coordinates":[9.251111781759038,45.49868157582762]}},{"type":"Feature","properties":{"FAX":null,"Nome":"COOPERATIVA DRIMS","Indirizzo":"VIA MECENATE   74","Zona":4,"info":"TENNIS TAVOLO","URL":null,"TELEFONO1":"025061277"},"geometry":{"type":"Point","coordinates":[9.246586992138512,45.45369431912185]}},{"type":"Feature","properties":{"FAX":null,"Nome":"G.S. FROGMONTEGANI LA ROSSA","Indirizzo":"VIA NOCE TERESA   5","Zona":5,"info":"CALCIO A 5","URL":"www.informacalcio.it/qsfrogmontegani.larossa","TELEFONO1":"028266730"},"geometry":{"type":"Point","coordinates":[9.170724515298653,45.41674498621279]}},{"type":"Feature","properties":{"FAX":null,"Nome":"U.S. GESCAL BOYS","Indirizzo":"VIA OLIVIERI ALESSIO   9","Zona":7,"info":"CENTRO SPORTIVO","URL":null,"TELEFONO1":"024564671"},"geometry":{"type":"Point","coordinates":[9.11352299682808,45.46417097221863]}},{"type":"Feature","properties":{"FAX":"0239262162","Nome":"XXV APRILE","Indirizzo":"VIA CIMABUE GIOVANNI   24","Zona":8,"info":"TENNIS","URL":"www.milanosport.it","TELEFONO1":"0239262162"},"geometry":{"type":"Point","coordinates":[9.138502959568921,45.488744309923796]}},{"type":"Feature","properties":{"FAX":null,"Nome":"DONATO PAVESI - PALESTRA CARLO GALIMBERTI","Indirizzo":"VIA DE LEMENE FRANCESCO   3","Zona":8,"info":"CENTRO SPORTIVO","URL":null,"TELEFONO1":"0239215190"},"geometry":{"type":"Point","coordinates":[9.139257781806608,45.49394306228759]}},{"type":"Feature","properties":{"FAX":null,"Nome":"G.S. AFFORESE","Indirizzo":"VIA ASSIETTA   48","Zona":9,"info":"CENTRO SPORTIVO","URL":null,"TELEFONO1":null},"geometry":{"type":"Point","coordinates":[9.157236933416439,45.516934707735366]}},{"type":"Feature","properties":{"FAX":null,"Nome":"A.S.I. - ALLEANZA SPORTIVA ITALIANA","Indirizzo":"VIA PASTA GIUDITTA   41","Zona":9,"info":"CALCIO A 11","URL":null,"TELEFONO1":null},"geometry":{"type":"Point","coordinates":[9.180805752989444,45.520335210137084]}},{"type":"Feature","properties":{"FAX":null,"Nome":"NIGUARDA CALCIO A.S.D.","Indirizzo":"VIA CESARI ANTONIO   38","Zona":9,"info":"CENTRO SPORTIVO","URL":null,"TELEFONO1":null},"geometry":{"type":"Point","coordinates":[9.186902526312695,45.51964116433997]}},{"type":"Feature","properties":{"FAX":null,"Nome":"CAMPO LIBERO PLE ACCURSIO FRANCESCO","Indirizzo":"PLE ACCURSIO FRANCESCO","Zona":8,"info":"PALLACANESTRO","URL":null,"TELEFONO1":null},"geometry":{"type":"Point","coordinates":[9.146444893346263,45.49285428704737]}},{"type":"Feature","properties":{"FAX":null,"Nome":"CAMPO LIBERO VLE ARGONNE","Indirizzo":"VLE ARGONNE","Zona":4,"info":"PALLACANESTRO","URL":null,"TELEFONO1":null},"geometry":{"type":"Point","coordinates":[9.227191347658218,45.46810685895404]}},{"type":"Feature","properties":{"FAX":null,"Nome":"CAMPO LIBERO PZA ASPROMONTE","Indirizzo":"PZA ASPROMONTE","Zona":3,"info":"PALLACANESTRO","URL":null,"TELEFONO1":null},"geometry":{"type":"Point","coordinates":[9.22021494995229,45.48393611265054]}},{"type":"Feature","properties":{"FAX":null,"Nome":"CAMPO LIBERO VIA BISCEGLIE  SNC","Indirizzo":"VIA BISCEGLIE  SNC","Zona":6,"info":"PALLACANESTRO","URL":null,"TELEFONO1":null},"geometry":{"type":"Point","coordinates":[9.122185681492288,45.44700825456075]}},{"type":"Feature","properties":{"FAX":null,"Nome":"CAMPO LIBERO VIA CROCE BENEDETTO","Indirizzo":"VIA CROCE BENEDETTO","Zona":8,"info":"PALLACANESTRO","URL":null,"TELEFONO1":null},"geometry":{"type":"Point","coordinates":[9.11763668272622,45.49455678294924]}},{"type":"Feature","properties":{"FAX":null,"Nome":"CAMPO LIBERO VLE CA' GRANDA","Indirizzo":"VLE CA' GRANDA","Zona":9,"info":"PALLACANESTRO","URL":null,"TELEFONO1":null},"geometry":{"type":"Point","coordinates":[9.19138943223788,45.50818928329742]}},{"type":"Feature","properties":{"FAX":null,"Nome":"CAMPO LIBERO VIA CALABRIA DON GIOVANNI","Indirizzo":"VIA CALABRIA DON GIOVANNI","Zona":3,"info":"PALLACANESTRO","URL":null,"TELEFONO1":null},"geometry":{"type":"Point","coordinates":[9.243369730438383,45.500998110276754]}},{"type":"Feature","properties":{"FAX":null,"Nome":"CAMPO LIBERO VIA DEZZA GIUSEPPE","Indirizzo":"VIA DEZZA GIUSEPPE","Zona":7,"info":"PALLACANESTRO","URL":null,"TELEFONO1":null},"geometry":{"type":"Point","coordinates":[9.160211145651486,45.46101371242356]}},{"type":"Feature","properties":{"FAX":null,"Nome":"CAMPO LIBERO PLE FARINA SALVATORE","Indirizzo":"PLE FARINA SALVATORE","Zona":2,"info":"PALLACANESTRO","URL":null,"TELEFONO1":null},"geometry":{"type":"Point","coordinates":[9.200148083110255,45.498709498277755]}},{"type":"Feature","properties":{"FAX":null,"Nome":"MARIA REGINA PACIS","Indirizzo":"VIA KANT EMANUELE   8","Zona":8,"info":"PALLACANESTRO","URL":null,"TELEFONO1":null},"geometry":{"type":"Point","coordinates":[9.11757906795117,45.4960026072185]}},{"type":"Feature","properties":{"FAX":null,"Nome":"SANTA BARBARA IN GRATOSOGLIO","Indirizzo":"VIA FERABOLI ACHILLE   27","Zona":5,"info":"CALCIO A 11","URL":null,"TELEFONO1":null},"geometry":{"type":"Point","coordinates":[9.171618114873265,45.41445452611065]}},{"type":"Feature","properties":{"FAX":null,"Nome":"SANTA BARBARA IN GRATOSOGLIO","Indirizzo":"VIA FERABOLI ACHILLE   27","Zona":5,"info":"PALLACANESTRO","URL":null,"TELEFONO1":null},"geometry":{"type":"Point","coordinates":[9.171618114873265,45.41445452611065]}},{"type":"Feature","properties":{"FAX":null,"Nome":"SANTA MARIA ASSUNTA IN QUINTOSOLE","Indirizzo":"VIA QUINTOSOLE   40","Zona":5,"info":"CALCIO A 11","URL":null,"TELEFONO1":null},"geometry":{"type":"Point","coordinates":[9.203571650606019,45.40198346085324]}},{"type":"Feature","properties":{"FAX":null,"Nome":"SANTA MARIA ASSUNTA IN QUINTOSOLE","Indirizzo":"VIA QUINTOSOLE   40","Zona":5,"info":"PALLACANESTRO","URL":null,"TELEFONO1":null},"geometry":{"type":"Point","coordinates":[9.203571650606019,45.40198346085324]}},{"type":"Feature","properties":{"FAX":null,"Nome":"SANTA MARIA MADRE DELLA CHIESA","Indirizzo":"VIA SAPONARO MICHELE   28","Zona":5,"info":"CALCIO A 11","URL":null,"TELEFONO1":null},"geometry":{"type":"Point","coordinates":[9.172285200831876,45.407106001124895]}},{"type":"Feature","properties":{"FAX":null,"Nome":"MARIA ASSUNTA IN CERTOSA","Indirizzo":"VIA PARETO VILFREDO   2","Zona":8,"info":"PALLAVOLO","URL":null,"TELEFONO1":null},"geometry":{"type":"Point","coordinates":[9.128348737689556,45.502550356395695]}},{"type":"Feature","properties":{"FAX":null,"Nome":"SANTI MM. NAZARO E CELSO","Indirizzo":"VIA ALDINI ANTONIO   33","Zona":8,"info":"CALCIO A 11","URL":"www.nazaroecelso.it","TELEFONO1":null},"geometry":{"type":"Point","coordinates":[9.135353726229107,45.51244519500127]}},{"type":"Feature","properties":{"FAX":null,"Nome":"SANTI MM. NAZARO E CELSO","Indirizzo":"VIA ALDINI ANTONIO   33","Zona":8,"info":"PALLACANESTRO","URL":"www.nazaroecelso.it","TELEFONO1":null},"geometry":{"type":"Point","coordinates":[9.135353726229107,45.51244519500127]}},{"type":"Feature","properties":{"FAX":null,"Nome":"SAN GAETANO","Indirizzo":"VIA MAC MAHON   92","Zona":8,"info":"CALCIO A 11","URL":null,"TELEFONO1":null},"geometry":{"type":"Point","coordinates":[9.158291903498723,45.4938445468244]}},{"type":"Feature","properties":{"FAX":null,"Nome":"QIQJAN","Indirizzo":"VIA FARINI CARLO   17","Zona":8,"info":"PALLACANESTRO","URL":null,"TELEFONO1":null},"geometry":{"type":"Point","coordinates":[9.181811744497834,45.48522396094795]}},{"type":"Feature","properties":{"FAX":null,"Nome":"SACRA FAMIGLIA","Indirizzo":"VIA BUONARROTI MICHELANGELO   49","Zona":8,"info":"CALCIO A 11","URL":null,"TELEFONO1":null},"geometry":{"type":"Point","coordinates":[9.155161609290301,45.47268240477625]}},{"type":"Feature","properties":{"FAX":null,"Nome":"SAN SIMPLICIANO","Indirizzo":"PZA SAN SIMPLICIANO   7","Zona":1,"info":"CENTRO SPORTIVO","URL":null,"TELEFONO1":null},"geometry":{"type":"Point","coordinates":[9.184052460681475,45.47388548476398]}},{"type":"Feature","properties":{"FAX":null,"Nome":"SAN FRANCESCO D'ASSISI AL FOPPONINO","Indirizzo":"VIA GIOVIO PAOLO   41","Zona":7,"info":"PALLACANESTRO","URL":null,"TELEFONO1":null},"geometry":{"type":"Point","coordinates":[9.162239915572064,45.462437228651964]}},{"type":"Feature","properties":{"FAX":null,"Nome":"SANT'AMBROGIO","Indirizzo":"PZA SANT' AMBROGIO   15","Zona":1,"info":"CALCIO A 11","URL":null,"TELEFONO1":null},"geometry":{"type":"Point","coordinates":[9.176063004115209,45.46322731485931]}},{"type":"Feature","properties":{"FAX":null,"Nome":"ISITUTO CASATI","Indirizzo":"VIA ARENA   13","Zona":1,"info":"PALLAVOLO","URL":null,"TELEFONO1":null},"geometry":{"type":"Point","coordinates":[9.179353410967328,45.45587157730819]}},{"type":"Feature","properties":{"FAX":null,"Nome":"ISITUTO CASATI","Indirizzo":"VIA ARENA   13","Zona":1,"info":"TENNIS","URL":null,"TELEFONO1":null},"geometry":{"type":"Point","coordinates":[9.179353410967328,45.45587157730819]}},{"type":"Feature","properties":{"FAX":null,"Nome":"ISTITUTO SUORE SANTA DOROTEA DI CEMMO","Indirizzo":"VLE GIOVANNI DA CERMENATE   4","Zona":5,"info":"CALCIO A 11","URL":null,"TELEFONO1":null},"geometry":{"type":"Point","coordinates":[9.17668939504701,45.43729584283658]}},{"type":"Feature","properties":{"FAX":null,"Nome":"SANTA MARIA ANNUNCIATA IN CHIESA ROSSA","Indirizzo":"VIA NEERA ANNA   24","Zona":5,"info":"CALCIO A 11","URL":null,"TELEFONO1":null},"geometry":{"type":"Point","coordinates":[9.178196876325167,45.43293937351914]}},{"type":"Feature","properties":{"FAX":null,"Nome":"SAN GIOVANNI BONO","Indirizzo":"VIA SAN PAOLINO   20","Zona":6,"info":"CENTRO SPORTIVO","URL":null,"TELEFONO1":null},"geometry":{"type":"Point","coordinates":[9.162085441534662,45.43049141364996]}},{"type":"Feature","properties":{"FAX":null,"Nome":"SACRA FAMIGLIA IN ROGOREDO","Indirizzo":"VIA MONTE PARALBA   15","Zona":4,"info":"CALCIO A 11","URL":null,"TELEFONO1":null},"geometry":{"type":"Point","coordinates":[9.24340700878784,45.43232384574066]}},{"type":"Feature","properties":{"FAX":null,"Nome":"SANTA MARIA LIBERATRICE","Indirizzo":"VIA SOLAROLI PAOLO   11","Zona":5,"info":"CENTRO SPORTIVO","URL":null,"TELEFONO1":null},"geometry":{"type":"Point","coordinates":[9.198525169264887,45.43662707025517]}},{"type":"Feature","properties":{"FAX":null,"Nome":"SANTA MARIA LIBERATRICE","Indirizzo":"VIA SOLAROLI PAOLO   11","Zona":5,"info":"PALLACANESTRO","URL":null,"TELEFONO1":null},"geometry":{"type":"Point","coordinates":[9.198525169264887,45.43662707025517]}},{"type":"Feature","properties":{"FAX":null,"Nome":"SAN MICHELE ARCANGELO E SANTA RITA","Indirizzo":"VIA DEI CINQUECENTO   1","Zona":4,"info":"CALCIO A 11","URL":"www.smsr.it","TELEFONO1":null},"geometry":{"type":"Point","coordinates":[9.222994591574956,45.43664365925307]}},{"type":"Feature","properties":{"FAX":null,"Nome":"SAN MICHELE ARCANGELO E SANTA RITA","Indirizzo":"VIA DEI CINQUECENTO   1","Zona":4,"info":"PALLACANESTRO","URL":"www.smsr.it","TELEFONO1":null},"geometry":{"type":"Point","coordinates":[9.222994591574956,45.43664365925307]}},{"type":"Feature","properties":{"FAX":null,"Nome":"SAN MICHELE ARCANGELO E SANTA RITA","Indirizzo":"VIA DEI CINQUECENTO   1","Zona":4,"info":"TENNIS","URL":"www.smsr.it","TELEFONO1":null},"geometry":{"type":"Point","coordinates":[9.222994591574956,45.43664365925307]}},{"type":"Feature","properties":{"FAX":null,"Nome":"OGNISANTI","Indirizzo":"VIA BESSARIONE   25","Zona":4,"info":"CALCIO A 11","URL":null,"TELEFONO1":null},"geometry":{"type":"Point","coordinates":[9.216712785634124,45.43833381823125]}},{"type":"Feature","properties":{"FAX":null,"Nome":"SAN GREGORIO BARBARIGO","Indirizzo":"VIA BORDIGHERA   46","Zona":5,"info":"CALCIO A 11","URL":null,"TELEFONO1":null},"geometry":{"type":"Point","coordinates":[9.173489044368395,45.43852795315672]}},{"type":"Feature","properties":{"FAX":null,"Nome":"SANTI QUATTRO EVANGELISTI","Indirizzo":"VIA PEZZOTTI GIOVANNI   53","Zona":5,"info":"CALCIO A 11","URL":"www.4evangelisti.net","TELEFONO1":null},"geometry":{"type":"Point","coordinates":[9.183653346340826,45.439503316947004]}},{"type":"Feature","properties":{"FAX":null,"Nome":"SANTI QUATTRO EVANGELISTI","Indirizzo":"VIA PEZZOTTI GIOVANNI   53","Zona":5,"info":"PALLACANESTRO","URL":"www.4evangelisti.net","TELEFONO1":null},"geometry":{"type":"Point","coordinates":[9.183653346340826,45.439503316947004]}},{"type":"Feature","properties":{"FAX":null,"Nome":"SAN SILVESTRO","Indirizzo":"VIA LODOVICO IL MORO   171","Zona":6,"info":"CALCIO A 11","URL":null,"TELEFONO1":null},"geometry":{"type":"Point","coordinates":[9.1277610694756,45.440253017973]}},{"type":"Feature","properties":{"FAX":null,"Nome":"SAN SILVESTRO","Indirizzo":"VIA LODOVICO IL MORO   171","Zona":6,"info":"PALLACANESTRO","URL":null,"TELEFONO1":null},"geometry":{"type":"Point","coordinates":[9.1277610694756,45.440253017973]}},{"type":"Feature","properties":{"FAX":null,"Nome":"SANTA MARIA ANNUNCIATA IN CHIESA ROSSA","Indirizzo":"VIA NEERA ANNA   24","Zona":5,"info":"PALLAVOLO","URL":null,"TELEFONO1":null},"geometry":{"type":"Point","coordinates":[9.178196876325167,45.43293937351914]}},{"type":"Feature","properties":{"FAX":null,"Nome":"ISTITUTO ZACCARIA","Indirizzo":"VIA DELLA COMMENDA   3","Zona":1,"info":"CALCIO A 11","URL":null,"TELEFONO1":null},"geometry":{"type":"Point","coordinates":[9.198823659574561,45.45949763974449]}},{"type":"Feature","properties":{"FAX":null,"Nome":"ISTITUTO ZACCARIA","Indirizzo":"VIA DELLA COMMENDA   3","Zona":1,"info":"PALLACANESTRO","URL":null,"TELEFONO1":null},"geometry":{"type":"Point","coordinates":[9.198823659574561,45.45949763974449]}},{"type":"Feature","properties":{"FAX":null,"Nome":"ISTITUTO SALESIANO DON BOSCO","Indirizzo":"VIA GIOIA MELCHIORRE   50","Zona":2,"info":"PALLACANESTRO","URL":null,"TELEFONO1":null},"geometry":{"type":"Point","coordinates":[9.199829456527013,45.48824677993925]}},{"type":"Feature","properties":{"FAX":null,"Nome":"ISTITUTO SALESIANO DON BOSCO","Indirizzo":"VIA TONALE   19","Zona":2,"info":"PALLACANESTRO","URL":null,"TELEFONO1":null},"geometry":{"type":"Point","coordinates":[9.201374961551362,45.48933585371239]}},{"type":"Feature","properties":{"FAX":null,"Nome":"ISTITUTO SALESIANO DON BOSCO","Indirizzo":"VIA TONALE   19","Zona":2,"info":"PALLAVOLO","URL":null,"TELEFONO1":null},"geometry":{"type":"Point","coordinates":[9.201374961551362,45.48933585371239]}},{"type":"Feature","properties":{"FAX":null,"Nome":"SANTA MARIA BELTRADE","Indirizzo":"VIA OXILIA NINO   8","Zona":2,"info":"PALLACANESTRO","URL":null,"TELEFONO1":null},"geometry":{"type":"Point","coordinates":[9.215377835848315,45.49260399870517]}},{"type":"Feature","properties":{"FAX":null,"Nome":"SAN GABRIELE IN MATER DEI","Indirizzo":"VIA TERMOPILI   5","Zona":2,"info":"PALLAVOLO","URL":null,"TELEFONO1":null},"geometry":{"type":"Point","coordinates":[9.21998287909914,45.491238195028856]}},{"type":"Feature","properties":{"FAX":null,"Nome":"SAN DOMENICO SAVIO","Indirizzo":"VIA ROVIGNO   19","Zona":2,"info":"PALLACANESTRO","URL":null,"TELEFONO1":null},"geometry":{"type":"Point","coordinates":[9.219524082810523,45.502406644619946]}},{"type":"Feature","properties":{"FAX":null,"Nome":"SAN DOMENICO SAVIO","Indirizzo":"VIA ROVIGNO   19","Zona":2,"info":"PALLAVOLO","URL":null,"TELEFONO1":null},"geometry":{"type":"Point","coordinates":[9.219524082810523,45.502406644619946]}},{"type":"Feature","properties":{"FAX":null,"Nome":"SAN GIUSEPPE DEI MORENTI","Indirizzo":"VIA CELENTANO BERNARDO   14","Zona":2,"info":"PALLAVOLO","URL":null,"TELEFONO1":null},"geometry":{"type":"Point","coordinates":[9.240439402611104,45.501277604419094]}},{"type":"Feature","properties":{"FAX":null,"Nome":"ISTITUTO SAN GIUSEPPE","Indirizzo":"VIA DE LA SALLE SAN GIOVANNI BATTISTA   5","Zona":2,"info":"CALCIO A 11","URL":null,"TELEFONO1":null},"geometry":{"type":"Point","coordinates":[9.241587589938899,45.50252090960342]}},{"type":"Feature","properties":{"FAX":null,"Nome":"SANTI NAZARO E CELSO","Indirizzo":"VIA ZUMBINI BONAVENTURA   19","Zona":6,"info":"CALCIO A 11","URL":"www.parrocchiabarona.it","TELEFONO1":null},"geometry":{"type":"Point","coordinates":[9.159468410290525,45.44141493229128]}},{"type":"Feature","properties":{"FAX":null,"Nome":"SANTI NAZARO E CELSO","Indirizzo":"VIA ZUMBINI BONAVENTURA   19","Zona":6,"info":"PALLACANESTRO","URL":"www.parrocchiabarona.it","TELEFONO1":null},"geometry":{"type":"Point","coordinates":[9.159468410290525,45.44141493229128]}},{"type":"Feature","properties":{"FAX":null,"Nome":"MADONNA DELLA MEDAGLIA MIRACOLOSA","Indirizzo":"VIA F.LLI ROSSELLI   6","Zona":4,"info":"CALCIO A 11","URL":null,"TELEFONO1":null},"geometry":{"type":"Point","coordinates":[9.225249027633437,45.442364313957626]}},{"type":"Feature","properties":{"FAX":null,"Nome":"ISTITUTO SAN GIUSEPPE","Indirizzo":"VIA DE LA SALLE SAN GIOVANNI BATTISTA   5","Zona":2,"info":"CALCIO A 5","URL":null,"TELEFONO1":null},"geometry":{"type":"Point","coordinates":[9.241587589938899,45.50252090960342]}},{"type":"Feature","properties":{"FAX":null,"Nome":"ISTITUTO SAN GIUSEPPE","Indirizzo":"VIA DE LA SALLE SAN GIOVANNI BATTISTA   5","Zona":2,"info":"CALCIO A 7","URL":null,"TELEFONO1":null},"geometry":{"type":"Point","coordinates":[9.241587589938899,45.50252090960342]}},{"type":"Feature","properties":{"FAX":null,"Nome":"ISTITUTO SAN GIUSEPPE","Indirizzo":"VIA DE LA SALLE SAN GIOVANNI BATTISTA   5","Zona":2,"info":"TENNIS","URL":null,"TELEFONO1":null},"geometry":{"type":"Point","coordinates":[9.241587589938899,45.50252090960342]}},{"type":"Feature","properties":{"FAX":null,"Nome":"SAN LEONE MAGNO","Indirizzo":"VIA CARNIA   14","Zona":3,"info":"CALCIO A 11","URL":null,"TELEFONO1":null},"geometry":{"type":"Point","coordinates":[9.236704493527228,45.492637476585735]}},{"type":"Feature","properties":{"FAX":null,"Nome":"SAN LEONE MAGNO","Indirizzo":"VIA CARNIA   14","Zona":3,"info":"PALLACANESTRO","URL":null,"TELEFONO1":null},"geometry":{"type":"Point","coordinates":[9.236704493527228,45.492637476585735]}},{"type":"Feature","properties":{"FAX":null,"Nome":"ORATORIO GIOVANNI XXIII","Indirizzo":"VIA PITTERI RICCARDO   54","Zona":3,"info":"PALLACANESTRO","URL":null,"TELEFONO1":null},"geometry":{"type":"Point","coordinates":[9.248244479823786,45.474705989937604]}},{"type":"Feature","properties":{"FAX":null,"Nome":"ORATORIO GIOVANNI XXIII","Indirizzo":"VIA PITTERI RICCARDO   54","Zona":3,"info":"PALLAVOLO","URL":null,"TELEFONO1":null},"geometry":{"type":"Point","coordinates":[9.248244479823786,45.474705989937604]}},{"type":"Feature","properties":{"FAX":"0234531118","Nome":"CENTRO SPORTIVO GIOVANNI DA PROCIDA","Indirizzo":"VIA GIOVANNI DA PROCIDA   20","Zona":8,"info":"NUOTO","URL":"www.milanosport.it","TELEFONO1":"0233104970"},"geometry":{"type":"Point","coordinates":[9.160049287895289,45.48152971821042]}},{"type":"Feature","properties":{"FAX":"0234531118","Nome":"CENTRO SPORTIVO GIOVANNI DA PROCIDA","Indirizzo":"VIA GIOVANNI DA PROCIDA   20","Zona":8,"info":"PALLACANESTRO","URL":"www.milanosport.it","TELEFONO1":"0233104970"},